{"type":"Topology","objects":{"pacificcoffee":{"type":"GeometryCollection","geometries":[{"type":"Point","properties":{"name":"British Council","address":"3 Supreme Court Road, Admiralty, Hong Kong"},"coordinates":[7097,2233]},{"type":"Point","properties":{"name":"Lippo Centre","address":"Lippo Centre, 89 Queensway, Admiralty, Hong Kong"},"coordinates":[7075,2339]},{"type":"Point","properties":{"name":"Shambala","address":"Shambala, Horizon Plaza, 2 Lee Wing Street, Ap Lei Chau, Hong Kong"},"coordinates":[6756,793]},{"type":"Point","properties":{"name":"Citicorp Centre","address":"Citicorp Centre, 18 Whitefield Road, Causeway Bay, Hong Kong"},"coordinates":[7843,2612]},{"type":"Point","properties":{"name":"Irving Street","address":"1-5 Irving Street, Causeway Bay, Hong Kong"},"coordinates":[7727,2324]},{"type":"Point","properties":{"name":"KPMG office","address":"KPMG office, Hysan Place, 500 Hennessy Road, Causeway Bay, Hong Kong"},"coordinates":[7655,2363]},{"type":"Point","properties":{"name":"Lee Gardens Two","address":"Lee Gardens Two, 28 Yun Ping Road, Causeway Bay, Hong Kong"},"coordinates":[7698,2321]},{"type":"Point","properties":{"name":"Pacific Coffee Emporium","address":"9 Kingston Street, Fashion Walk, Causeway Bay, Hong Kong"},"coordinates":[7749,2360]},{"type":"Point","properties":{"name":"Windsor House","address":"Windsor House, 311 Gloucester Road, Causeway Bay, Hong Kong"},"coordinates":[7736,2386]},{"type":"Point","properties":{"name":"CafeSalon","address":"No 86 Wellington Street, Central, Hong Kong"},"coordinates":[6811,2480]},{"type":"Point","properties":{"name":"Central Building","address":"2/F Central Building, 1-3 Pedder Street, Central, Hong Kong"},"coordinates":[6895,2417]},{"type":"Point","properties":{"name":"Citibank Plaza","address":"Citibank Plaza, 3 Garden Road, Central, Hong Kong"},"coordinates":[6989,2320]},{"type":"Point","properties":{"name":"Entertainment Building","address":"Entertainment Building, 30 Queen's Road, Central, Hong Kong"},"coordinates":[6866,2426]},{"type":"Point","properties":{"name":"Grand Building","address":"Grand Building, 15-18 Connaught Road Central, Central, Hong Kong"},"coordinates":[6900,2485]},{"type":"Point","properties":{"name":"Hang Seng Bank","address":"Hang Seng Bank Headquarters Building, 83 Des Voeux Road, Central, Hong Kong"},"coordinates":[6861,2548]},{"type":"Point","properties":{"name":"HSBC Main Building","address":"HSBC Main Building, 1 Queen's Road Central, Central, Hong Kong"},"coordinates":[6956,2382]},{"type":"Point","properties":{"name":"","address":"HSBC Main Building, 1 Queen's Road Central, Central, Hong Kong"},"coordinates":[6956,2382]},{"type":"Point","properties":{"name":"","address":"South Bay, HSBC Main Building, 1 Queen's Road Central, Central, Hong Kong"},"coordinates":[6956,2382]},{"type":"Point","properties":{"name":"Hutchison House","address":"Hutchison House, 10 Harcourt Road, Central, Hong Kong"},"coordinates":[7044,2411]},{"type":"Point","properties":{"name":"Lyndhurst Terrace","address":"The Workstation, 43 Lyndhurst Terrace, Central, Hong Kong"},"coordinates":[6776,2473]},{"type":"Point","properties":{"name":"Mosque Street","address":"22 Mosque Street, Hong Kong"},"coordinates":[6722,2383]},{"type":"Point","properties":{"name":"St. John’s Building","address":"St John's Building, 33 Garden Road, Central, Hong Kong"},"coordinates":[6947,2282]},{"type":"Point","properties":{"name":"The Center","address":"The Center, 99 Queen's Road, Central, Hong Kong"},"coordinates":[6817,2548]},{"type":"Point","properties":{"name":"The Peak Tower","address":"The Peak Tower, 128 Peak Road, Hong Kong"},"coordinates":[6763,2188]},{"type":"Point","properties":{"name":"8 Wyndham Street","address":"8 Wyndham Street, Central, Hong Kong"},"coordinates":[6869,2411]},{"type":"Point","properties":{"name":"Sing Woo Road","address":"53 Sing Woo Road, Happy Valley, Hong Kong"},"coordinates":[7738,1921]},{"type":"Point","properties":{"name":"625 King's Road","address":"625 King's Road, North Point, Hong Kong"},"coordinates":[8300,2843]},{"type":"Point","properties":{"name":"Island Place","address":"Island Place, 500 King's Road, North Point, Hong Kong"},"coordinates":[8191,2801]},{"type":"Point","properties":{"name":"K. Wah Centre","address":"K Wah Centre, 191 Java Road, North Point, Hong Kong"},"coordinates":[8261,2880]},{"type":"Point","properties":{"name":"DBS Bank","address":"DBS Bank, One Island East, 18 Westlands Road, Quarry Bay, Hong Kong"},"coordinates":[8509,2606]},{"type":"Point","properties":{"name":"Fortis Centre","address":"Fortis Centre, 1063 King's Road, Quarry Bay, Hong Kong"},"coordinates":[8521,2556]},{"type":"Point","properties":{"name":"Hoi Kwong Street","address":"Tai Fung Building, 26 & 28 Hoi Kwong Street, Quarry Bay, Hong Kong"},"coordinates":[8435,2681]},{"type":"Point","properties":{"name":"Westlands Gardens","address":"Westlands Gardens, 12A-12H Westlands Road, Quarry Bay, Hong Kong"},"coordinates":[8499,2614]},{"type":"Point","properties":{"name":"One Island East","address":"Area A, One Island East, 18 Westlands Road, Quarry Bay, Hong Kong"},"coordinates":[8508,2607]},{"type":"Point","properties":{"name":"Lei King Wan","address":"25 Tai On Street, Lei King Wan, Sai Wan Ho, Hong Kong"},"coordinates":[8814,2512]},{"type":"Point","properties":{"name":"Hollywood Centre","address":"Hollywood Centre, 233 Hollywood Road, Sheung Wan, Hong Kong"},"coordinates":[6627,2584]},{"type":"Point","properties":{"name":"the L.plaza","address":"the Lplaza, 367-375 Queen's Road, Sheung Wan, Hong Kong"},"coordinates":[6783,2574]},{"type":"Point","properties":{"name":"Shun Tak Centre","address":"Shun Tak Centre, 200 Connaught Road Central, Sheung Wan, Hong Kong"},"coordinates":[6732,2675]},{"type":"Point","properties":{"name":"Infinitus Plaza","address":"Infinitus Plaza, 199 Des Voeux Road Central, Hong Kong"},"coordinates":[6787,2619]},{"type":"Point","properties":{"name":"The Repulse Bay","address":"The Repulse Bay, 109 Repulse Bay Road, Hong Kong"},"coordinates":[8014,797]},{"type":"Point","properties":{"name":"The Stanley","address":"80 Stanley Village Road, Hong Kong"},"coordinates":[8495,0]},{"type":"Point","properties":{"name":"Cityplaza 5/F","address":"Cityplaza 1, Taikoo Shing, Hong Kong"},"coordinates":[8635,2638]},{"type":"Point","properties":{"name":"King's Commercial Centre","address":"King's Commercial Centre, 25 King’s Road, Tin Hau, Hong Kong"},"coordinates":[7904,2517]},{"type":"Point","properties":{"name":"AIA Building","address":"AIA Building, No1 Stubbs Road, Hong Kong"},"coordinates":[7469,2132]},{"type":"Point","properties":{"name":"Allied Kajima Building","address":"Allied Kajima Building, 138 Gloucester Road, Wan Chai, Hong Kong"},"coordinates":[7442,2342]},{"type":"Point","properties":{"name":"Causeway Centre","address":"Causeway Centre, 28 Harbour Road, Wan Chai, Hong Kong"},"coordinates":[7435,2381]},{"type":"Point","properties":{"name":"CC Wu Building","address":"CC Wu Building, 302-308 Hennessy Road, Wan Chai, Hong Kong"},"coordinates":[7484,2285]},{"type":"Point","properties":{"name":"Central Plaza","address":"Central Plaza, 18 Harbour Road, Wan Chai, Hong Kong"},"coordinates":[7365,2365]},{"type":"Point","properties":{"name":"East Town Building","address":"East Town Building, 41 Lockhart Road, Wan Chai, Hong Kong"},"coordinates":[7276,2313]},{"type":"Point","properties":{"name":"Fortis Bank Tower","address":"Fortis Bank Tower, 77 - 79 Gloucester Road, Wan Chai, Hong Kong"},"coordinates":[7335,2326]},{"type":"Point","properties":{"name":"Great Eagle Centre","address":"Great Eagle Centre, 23 Harbour Road, Wan Chai, Hong Kong"},"coordinates":[7398,2410]},{"type":"Point","properties":{"name":"Tai Yau Plaza","address":"Tai Yau Plaza, 181 Johnston Road, Wan Chai, Hong Kong"},"coordinates":[7422,2255]},{"type":"Point","properties":{"name":"The Vine Centre","address":"The Vine Centre, 29 Burrows Street, Wan Chai, Hong Kong"},"coordinates":[7440,2223]},{"type":"Point","properties":{"name":"Bonham Road","address":"Kam Ning Mansion, 13 & 15 Bonham Road, Hong Kong"},"coordinates":[5512,6855]},{"type":"Point","properties":{"name":"Davis Street","address":"Luen Wai Apartments, Nos 136, 140 & 142 Belcher’s Street and Nos 7 & 7A Davis Street, Hong Kong"},"coordinates":[5512,6855]},{"type":"Point","properties":{"name":"HKU, Swire Hall","address":"Global Lounge, Registry, The University of Hong Kong, Pok Fu Lam Road, Hong Kong"},"coordinates":[6261,1776]},{"type":"Point","properties":{"name":"Fortune Metropolis","address":"Atrium B1, Fortune Metropolis, 6 Metropolis Drive, Hung Hom, Hong Kong"},"coordinates":[7638,3243]},{"type":"Point","properties":{"name":"Poly U","address":"Podium, Pao Yue-kong Library, The Hong Kong Polytechnic University, Hong Kong"},"coordinates":[7531,3341]},{"type":"Point","properties":{"name":"Whampoa Garden","address":"Whampoa Garden, Hung Hom, Hong Kong"},"coordinates":[7898,3291]},{"type":"Point","properties":{"name":"Queen Elizabeth Hospital","address":"Queen Elizabeth Hospital, 30 Gasscoigne Road, Jordan, Hong Kong"},"coordinates":[7384,3417]},{"type":"Point","properties":{"name":"Chevalier Engineering Service Centre","address":"Chevalier Engineering Service Centre, 21 Sheung Yuet Road, Kowloon Bay, Hong Kong"},"coordinates":[8449,3996]},{"type":"Point","properties":{"name":"EMax","address":"EMax, 1 Trademart Drive, Kowloon Bay, Hong Kong"},"coordinates":[8237,4064]},{"type":"Point","properties":{"name":"Octa Tower","address":"Octa Tower, 8 Lam Chak Street, Kowloon Bay, Hong Kong"},"coordinates":[8465,3744]},{"type":"Point","properties":{"name":"HKU SPACE","address":"HKU SPACE, Kowloon East Campus, 28 Wang Hoi Road, Kowloon Bay, Hong Kong"},"coordinates":[8441,4076]},{"type":"Point","properties":{"name":"Skyline Tower","address":"Skyline Tower, 39 Wang Kwong Road, Kowloon Bay, Hong Kong"},"coordinates":[8283,4158]},{"type":"Point","properties":{"name":"MegaBox","address":"MegaBox, Enterprise Square Five, 38 Wang Chiu Road, Kowloon Bay, Hong Kong"},"coordinates":[8388,3907]},{"type":"Point","properties":{"name":"Telford Plaza Phase 2","address":"Telford Plaza Phase 2, Kowloon Bay, Hong Kong"},"coordinates":[8531,4124]},{"type":"Point","properties":{"name":"Festival Walk","address":"Festival Walk, Tat Chee Avenue, Kowloon Tong, Hong Kong"},"coordinates":[7415,4400]},{"type":"Point","properties":{"name":"","address":"Festival Walk, Tat Chee Avenue, Kowloon Tong, Hong Kong"},"coordinates":[7415,4400]},{"type":"Point","properties":{"name":"Inno Centre","address":"Inno Centre, 72 Tat Chee Avenue, Kowloon Tong, Hong Kong"},"coordinates":[7436,4498]},{"type":"Point","properties":{"name":"Run Run Shaw Creative Media Centre","address":"Run Run Shaw Creative Media Centre, City University of Hong Kong, 18 Tat Hong Avenue, Hong Kong"},"coordinates":[7215,4687]},{"type":"Point","properties":{"name":"APM","address":"APM, Kwun Tong, Hong Kong"},"coordinates":[8853,3619]},{"type":"Point","properties":{"name":"Manulife Financial Centre","address":"Manulife Financial Centre, 223 Wai Yip Street, Kwun Tong, Hong Kong"},"coordinates":[8819,3421]},{"type":"Point","properties":{"name":"Millennium City 6","address":"Office Lobby, Millennium City 6, 392 Kwun Tong Road, Kwun Tong, Hong Kong"},"coordinates":[8759,3654]},{"type":"Point","properties":{"name":"Laguna Plaza","address":"Laguna Plaza, 88 Cha Kwo Ling Road, Lam Tin, Hong Kong"},"coordinates":[8931,3404]},{"type":"Point","properties":{"name":"Flower Market","address":"152A-D Prince Edward Road West, Mong Kok, Hong Kong"},"coordinates":[7269,4087]},{"type":"Point","properties":{"name":"Grand Century Place","address":"Grand Century Place, 193 Prince Edward Road West, MongKok, Hong Kong"},"coordinates":[7318,4026]},{"type":"Point","properties":{"name":"HSBC Centre","address":"HSBC Centre, 1 Sham Mong Road, Tai Kok Tsui, Hong Kong"},"coordinates":[7000,3866]},{"type":"Point","properties":{"name":"Langham Place","address":"Langham Place, Mong Kok, Hong Kong"},"coordinates":[7199,3843]},{"type":"Point","properties":{"name":"Olympian City 3","address":"Olympian City 3, 1 Hoi Wang Road, Mong Kok, Hong Kong"},"coordinates":[7083,3812]},{"type":"Point","properties":{"name":"Tung Wah College","address":"Tung Wah College, 31 Wylie Road, Ho Man Tin, Hong Kong"},"coordinates":[7424,3622]},{"type":"Point","properties":{"name":"9 Wing Hong Street","address":"Lobby, 9 Wing Hong Street, Cheung Sha Wan, Hong Kong"},"coordinates":[6556,4623]},{"type":"Point","properties":{"name":"Manhattan Mid-Town","address":"Manhattan Mid-Town, 1 Po Lun Street, Meifoo, Hong Kong"},"coordinates":[5512,6855]},{"type":"Point","properties":{"name":"26 Nathan Road","address":"26 Nathan Road, Tsim Sha Tsui, Hong Kong"},"coordinates":[7334,2981]},{"type":"Point","properties":{"name":"China Hong Kong City","address":"Tower 1, China Hong Kong City, 33 Canton Road, Tsim Sha Tsui, Hong Kong"},"coordinates":[7196,3171]},{"type":"Point","properties":{"name":"Empire Centre","address":"Empire Centre, 68 Mody Road Tsim Sha Tsui, Hong Kong"},"coordinates":[7500,3074]},{"type":"Point","properties":{"name":"Harbour City","address":"Ocean Terminal, Harbour City, Tsim Sha Tsui, Hong Kong"},"coordinates":[6686,2668]},{"type":"Point","properties":{"name":"Miramar Shopping Centre","address":"Miramar Shopping Centre, 132 Nathan Road, Tsim Sha Tsui, Hong Kong"},"coordinates":[7322,3177]},{"type":"Point","properties":{"name":"Silvercord","address":"Shopping Arcade, Silvercord, 30 Canton Road, Tsim Sha Tsui, Hong Kong"},"coordinates":[7239,3051]},{"type":"Point","properties":{"name":"The One","address":"The One, 100 Nathan Road, Tsim Sha Tsui, Hong Kong"},"coordinates":[7335,3134]},{"type":"Point","properties":{"name":"Kowloon Commerce Centre","address":"Tower 1, Kowloon Commerce Centre, 51 Kwai Cheong Road, Kwai Chung, Hong Kong"},"coordinates":[6176,5509]},{"type":"Point","properties":{"name":"Princess Margaret Hospital","address":"Main Block, Princess Margaret Hospital, Kwai Chung, Hong Kong"},"coordinates":[6248,5524]},{"type":"Point","properties":{"name":"Metroplaza","address":"Metroplaza, Kwai Fong, Hong Kong"},"coordinates":[6036,5353]},{"type":"Point","properties":{"name":"Wonderland Villas","address":"9 Wah King Hill Road, Kwai Chung, Hong Kong"},"coordinates":[6303,5134]},{"type":"Point","properties":{"name":"Park Island","address":"Park Island - Pier, Ma Wan, Hong Kong"},"coordinates":[4201,5173]},{"type":"Point","properties":{"name":"HomeSquare","address":"HomeSquare, Sha Tin, Hong Kong"},"coordinates":[8049,6112]},{"type":"Point","properties":{"name":"Hong Kong Science Park","address":"Hong Kong Science Park, Pak Shek Kok, Sha Tin, Hong Kong"},"coordinates":[8140,6256]},{"type":"Point","properties":{"name":"HSBC Data Centre Building","address":"HSBC Data Centre Building, 8 On Kwan Street, Shek Mun, Shatin, Hong Kong"},"coordinates":[5512,6855]},{"type":"Point","properties":{"name":"New Town Plaza","address":"New Town Plaza, Phase I, Sha Tin, Hong Kong"},"coordinates":[7773,6288]},{"type":"Point","properties":{"name":"The Hong Kong Institute of Education","address":"Learning Commons, The Hong Kong Institute of Education, 10 Lo Ping Road, Tai Po, Hong Kong"},"coordinates":[8043,9705]},{"type":"Point","properties":{"name":"East Point City","address":"Area C, East Point City, 8 Chung Wa Road, Tseung Kwan O, Hong Kong"},"coordinates":[9999,3792]},{"type":"Point","properties":{"name":"Hong Kong Design Institute and Hong Kong Institute of Vocational Education (Lee Wai Lee)","address":"Hong Kong Design Institute and Hong Kong Institute of Vocational Education (Lee Wai Lee), 3 King Ling Rd, Tseung Kwan O, Hong Kong"},"coordinates":[9687,3377]},{"type":"Point","properties":{"name":"HSBC Building Tseung Kwan O","address":"HSBC Building Tseung Kwan O, 2 Chun Sing Street, Tseung Kwan O Industrial Estate, Tseung Kwan O, Hong Kong"},"coordinates":[9764,3600]},{"type":"Point","properties":{"name":"Metro City","address":"Metro City Phase II, Tseung Kwan O, Hong Kong"},"coordinates":[9772,4071]},{"type":"Point","properties":{"name":"Park Central","address":"9 Tong Tak Street, Tseung Kwan O, Hong Kong"},"coordinates":[9797,3440]},{"type":"Point","properties":{"name":"Nina Tower","address":"Nina Tower, 8 Yeung Uk Road, Tsuen Wan, Hong Kong"},"coordinates":[5613,5789]},{"type":"Point","properties":{"name":"Tsuen Wan Plaza","address":"Open Café B, Tsuen Wan Plaza, 4-30 Tai Pa Street, Tsuen Wan, Hong Kong"},"coordinates":[5566,5859]},{"type":"Point","properties":{"name":"Hong Kong Gold Coast Piazza","address":"Hong Kong Gold Coast Piazza, 1 Castle Peak Road, Tuen Mun, Hong Kong"},"coordinates":[2157,5924]},{"type":"Point","properties":{"name":"Fairview Park","address":"Town Centre, Fairview Park, Yuen Long, Hong Kong"},"coordinates":[3632,9999]},{"type":"Point","properties":{"name":"Asia World-Expo","address":"Asia World Expo, Hong Kong"},"coordinates":[655,3981]},{"type":"Point","properties":{"name":"","address":"Asia World-Expo, Hong Kong"},"coordinates":[655,3981]},{"type":"Point","properties":{"name":"","address":"Asia World-Expo, Hong Kong"},"coordinates":[655,3981]},{"type":"Point","properties":{"name":"","address":"Asia World-Expo, Hong Kong"},"coordinates":[655,3981]},{"type":"Point","properties":{"name":"Discovery Bay Ferry Pier","address":"Asia World-Expo, Hong Kong"},"coordinates":[655,3981]},{"type":"Point","properties":{"name":"","address":"Discovery Bay Ferry Pier, Discovery Bay, Hong Kong"},"coordinates":[2865,3017]},{"type":"Point","properties":{"name":"Airport Gate 28","address":"Discovery Bay Plaza, Discovery Bay, Hong Kong"},"coordinates":[2830,2957]},{"type":"Point","properties":{"name":"Skyplaza","address":"Airport Gate 28, Passenger Terminal Building, Hong Kong International Airport, Chek Lap Kok, Hong Kong"},"coordinates":[0,3451]},{"type":"Point","properties":{"name":"","address":"South Concourse, Terminal 1, Hong Kong International Airport, Chep Lap Kok, Hong Kong"},"coordinates":[523,3701]},{"type":"Point","properties":{"name":"Mui Wo Pier","address":"Skyplaza, Terminal 2, Hong Kong International Airport, Chek Lap Kok, Hong Kong"},"coordinates":[555,3770]},{"type":"Point","properties":{"name":"Citygate outlets","address":"Lower Deck, Mui Wo Pier, Mui Wo, Hong Kong"},"coordinates":[2302,1619]},{"type":"Point","properties":{"name":"Kiang Wu Hospital","address":"Citygate outlets, 20 Tat Tung Road, Tung Chung, Hong Kong"},"coordinates":[637,2742]},{"type":"Point","properties":{"name":"City of Dreams - Dancing Water Boulevard","address":"Travessa dos Anjos 16, EdfTin Fook G FL, Hong Kong"},"coordinates":[5512,6855]}]}},"arcs":[],"transform":{"scale":[0.0000346560856085608,0.00002596240624062386],"translate":[113.9184808,22.218461]}}