[
  {
    "name": "Aberdeen Marina Club",
    "address": "Marina Tower, Aberdeen Marina Club, 8 Shum Wan Road, Hong Kong",
    "lat": 22.244771,
    "lng": 114.1648363
  },
  {
    "name": "Aldrich Garden",
    "address": "Aldrich Garden, No2 Oi Lai Street, Hong Kong",
    "lat": 22.396428,
    "lng": 114.109497
  },
  {
    "name": "Ap Lei Chau Estate",
    "address": "Ap Lei Chau Estate Multi-storey Car Park, Ap Lei Chau Bridge Road, Ap Lei Chau, Hong Kong",
    "lat": 22.2444316,
    "lng": 114.1514598
  },
  {
    "name": "Austin Tower",
    "address": "Austin Tower, 22-26A Austin Avenue, Tsim Sha Tsui, Hong Kong",
    "lat": 22.3030887,
    "lng": 114.1751935
  },
  {
    "name": "Best-O-Best Commercial Centre, Ferry Street",
    "address": "Best-O-Best Commercial Centre, 32-36 Ferry Street, Yau Ma Tei, Hong Kong",
    "lat": 22.3075506,
    "lng": 114.1676263
  },
  {
    "name": "Bijou Court",
    "address": "Bijou Court, No 171 Prince Edward Road West, Mong Kok Kowloon, Hong Kong",
    "lat": 22.323961,
    "lng": 114.1693183
  },
  {
    "name": "Billionnaire Royale",
    "address": "Billionnaire Royale, No 83 Sa Po Road City, Hong Kong",
    "lat": 22.3308797,
    "lng": 114.1924704
  },
  {
    "name": "Blossom Garden",
    "address": "Blossom Garden, 11 Leung Tak Street, Tuen Mun, Hong Kong",
    "lat": 22.4082199,
    "lng": 113.9686551
  },
  {
    "name": "Bute Street",
    "address": "Carprio Mansion, 1 Lai Chi Kok Road, Mong Kok, Hong Kong",
    "lat": 22.3221308,
    "lng": 114.1684822
  },
  {
    "name": "CC Wu Building",
    "address": "CC Wu Building, 302-308 Hennessy Road, Wan Chai, Hong Kong",
    "lat": 22.2777777,
    "lng": 114.1778408
  },
  {
    "name": "Carmel Hill",
    "address": "Carmel-on-the-hill, 9 Carmel Village Street, Ho Man Tin, Hong Kong",
    "lat": 22.3137613,
    "lng": 114.1792574
  },
  {
    "name": "Charming Garden",
    "address": "Site 2 of Charming Garden, No 8 Hoi Ting Road, Hong Kong",
    "lat": 22.314508,
    "lng": 114.165585
  },
  {
    "name": "Cheerful Garden",
    "address": "Carport Building, Cheerful Garden, 23 Siu Sai Wan Road, Siu Sai Wan, Hong Kong",
    "lat": 22.263288,
    "lng": 114.250305
  },
  {
    "name": "Chelsea Heights",
    "address": "Chelsea Heights, 1 Shek Pai Path, Tuen Mun, Hong Kong",
    "lat": 22.40064,
    "lng": 113.97413
  },
  {
    "name": "Cheong Fai Mansion, Tong Mi Road",
    "address": "Cheong Fai Mansion, No 22 Tong Mi Road, Hong Kong",
    "lat": 22.3193177,
    "lng": 114.1662761
  },
  {
    "name": "Cheung Fat Building",
    "address": "Cheung Fat Building, No 7-9 Hill Road, Shek Tong Tsui, Hong Kong",
    "lat": 22.2862963,
    "lng": 114.1356212
  },
  {
    "name": "Cheung Shan Estate",
    "address": "Cheung Shan Shopping Centre, Cheung Shan Estate, Cheung Shan Estate Road West, Kwai Chung, Hong Kong",
    "lat": 22.3784201,
    "lng": 114.1309011
  },
  {
    "name": "Cheung Wah Shopping Centre",
    "address": "Cheung Wah Shopping Centre, Cheung Wah Estate, Fanling, Hong Kong",
    "lat": 22.4869909,
    "lng": 114.13799
  },
  {
    "name": "Cheung Wang Estate",
    "address": "Cheung Wang Shopping Centre, Cheung Wang Estate, Tsing Yi, Hong Kong",
    "lat": 22.358487,
    "lng": 114.107261
  },
  {
    "name": "Chevalier Commeicial Centre",
    "address": "Chevalier Commercial Centre, 8 Wang Hoi Road Bay, Hong Kong",
    "lat": 22.3213269,
    "lng": 114.2112792
  },
  {
    "name": "Chinese University",
    "address": "New Staff & Student Centre, Chinese University, Hong Kong",
    "lat": 22.396428,
    "lng": 114.109497
  },
  {
    "name": "Ching Ho Estate",
    "address": "Ching Ho Shopping Centre, Ching Ho Estate, Sheung Shui, Hong Kong",
    "lat": 22.5112008,
    "lng": 114.1260991
  },
  {
    "name": "Ching Long Shopping Centre",
    "address": "Ching Long Shopping Centre City, Hong Kong",
    "lat": 22.3315397,
    "lng": 114.2029199
  },
  {
    "name": "Cho Yiu Chuen",
    "address": "Cho Yiu Chuen, 6 King Cho Road, Kwai Chung, Hong Kong",
    "lat": 22.346043,
    "lng": 114.129088
  },
  {
    "name": "Choi Tak Estate",
    "address": "Choi Tak Shopping Centre, Choi Tak Estate, Ngau Tau Kok, Hong Kong",
    "lat": 22.32233,
    "lng": 114.213055
  },
  {
    "name": "Choi Wan Estate",
    "address": "Third Floor, Choi Wan Shopping Centre (Phase 2), Choi Wan (1) Estate, 45 Clear Water Bay Road, Ngau Chi Wan, Hong Kong",
    "lat": 22.333414,
    "lng": 114.213143
  },
  {
    "name": "Choi Ying Estate",
    "address": "Choi Ying Place, Choi Ying Estate, Ngau Tau Kok, Hong Kong",
    "lat": 22.3204342,
    "lng": 114.1858807
  },
  {
    "name": "Chuk Yuen 2",
    "address": "Chuk Yuen Shopping Centre, 15 Chuk Yuen Road, Wong Tai Sin, Hong Kong",
    "lat": 22.343992,
    "lng": 114.194235
  },
  {
    "name": "Comet Mansion",
    "address": "Comet Mansion, Fung Cheung Road, Yuen Long, Hong Kong",
    "lat": 22.4425159,
    "lng": 114.0324707
  },
  {
    "name": "Command Tower",
    "address": "Command Tower, 145 Main Street, Ap Lei Chau, Ap Lei Chau, Hong Kong",
    "lat": 22.243347,
    "lng": 114.1542002
  },
  {
    "name": "Eastern Central Plaza, Quarry Bay",
    "address": "Eastern Central Plaza, 1032-1044 King's Road, Quarry Bay, Hong Kong",
    "lat": 22.2919752,
    "lng": 114.2075175
  },
  {
    "name": "Eastern Commercial Plaza",
    "address": "Eastern Commercial Plaza, 80 Tung Wan Road, Cheung Chau, Hong Kong",
    "lat": 22.2084954,
    "lng": 114.0295438
  },
  {
    "name": "Eastland Towers, Castle Peak Road",
    "address": "Eastland Towers, Castle Peak Road, Sham Shui Po, Hong Kong",
    "lat": 22.3355597,
    "lng": 114.159495
  },
  {
    "name": "Fairview Heights",
    "address": "Fairview Heights, 1 Seymour Road, Hong Kong",
    "lat": 22.396428,
    "lng": 114.109497
  },
  {
    "name": "Flora Plaza",
    "address": "Flora Plaza Shopping Arcade, Fanling, Hong Kong",
    "lat": 22.4869909,
    "lng": 114.13799
  },
  {
    "name": "Fok On Building, Ma Tau Chung Road",
    "address": "Fok On Building, 90-98 Ma Tau Chung Road, To Kwa Wan, Hong Kong",
    "lat": 22.3238085,
    "lng": 114.1886621
  },
  {
    "name": "Foo Yuen Building, Yin Hing Street",
    "address": "Foo Yuen Building, 21-29 Yin Hing Street, San Po Kong, Hong Kong",
    "lat": 22.3354212,
    "lng": 114.1948208
  },
  {
    "name": "Fortress Tower",
    "address": "Fortress Tower, 250 King's Road, North Point, Hong Kong",
    "lat": 22.2885994,
    "lng": 114.1943746
  },
  {
    "name": "Fortune Estate",
    "address": "Fortune Shopping Centre, Fortune Estate, Cheung Sha Wan, Hong Kong",
    "lat": 22.231794,
    "lng": 114.010589
  },
  {
    "name": "Fu Cheong Estate",
    "address": "Fu Cheong Shopping Centre, Fu Cheong Estate, Sham Shui Po, Hong Kong",
    "lat": 22.3285899,
    "lng": 114.1602846
  },
  {
    "name": "Fu Heng Estate",
    "address": "Fu Heng Shopping Centre, Fu Heng Estate, Tai Po, Hong Kong",
    "lat": 22.456213,
    "lng": 114.171039
  },
  {
    "name": "Fu Tai Shopping Centre",
    "address": "Fu Tai Shopping Centre, Tuen Mun, Hong Kong",
    "lat": 22.4138836,
    "lng": 113.9834772
  },
  {
    "name": "Full Win Commercial Centre",
    "address": "Full Win Commercial Centre, 573 Nathan Road, Yau Ma Tei, Hong Kong",
    "lat": 22.3148953,
    "lng": 114.1699917
  },
  {
    "name": "Fung Tak Estate",
    "address": "Fung Tak Shopping Centre, Fung Tak Estate, Diamond Hill, Hong Kong",
    "lat": 22.3438727,
    "lng": 114.2048704
  },
  {
    "name": "Gage Street",
    "address": "Lyndhurst Building, 2A Gage Street, Central, Hong Kong",
    "lat": 22.2826769,
    "lng": 114.1536428
  },
  {
    "name": "Glorious Garden, Lung Mun Road",
    "address": "Glorious Garden, No 45 Lung Mun Road, Tuen Mun, Hong Kong",
    "lat": 22.3825544,
    "lng": 113.9663261
  },
  {
    "name": "Golden Era Plaza",
    "address": "Golden Era Plaza, 39-55 Sai Yee Street, Mongkok, Hong Kong",
    "lat": 22.3183665,
    "lng": 114.1717566
  },
  {
    "name": "Good World Building, Tong Mi Road",
    "address": "Good World Building, No 197-199 Tong Mi Road, Hong Kong",
    "lat": 22.3247261,
    "lng": 114.1646041
  },
  {
    "name": "Harbour Heights, Fook Yum Road",
    "address": "Nam Fung Court, Harbour Heights, No 1 Fook Yum Road, Hong Kong",
    "lat": 22.2878544,
    "lng": 114.1916345
  },
  {
    "name": "Healthy House, Victory Avenue",
    "address": "Healthy House, 14-14A Victory Avenue, Mong Kok, Hong Kong",
    "lat": 22.3190421,
    "lng": 114.1747987
  },
  {
    "name": "Hing Man Estate",
    "address": "Hing Man Shopping Centre, Hing Man Estate, Chai Wan, Hong Kong",
    "lat": 22.264625,
    "lng": 114.237139
  },
  {
    "name": "Hing Tung Estate",
    "address": "Hing Tung Shopping Centre, Hing Tung Estate, Sai Wan Ho, Hong Kong",
    "lat": 22.282096,
    "lng": 114.221905
  },
  {
    "name": "Hing Wah Estate",
    "address": "Hing Wah Shopping Centre, Hing Wah Estate, Chai Wan, Hong Kong",
    "lat": 22.264625,
    "lng": 114.237139
  },
  {
    "name": "Hiu Lai Court",
    "address": "Hiu Lai Shopping Centre, Sau Mau Ping, Kwun Tong, Hong Kong",
    "lat": 22.3178955,
    "lng": 114.2330499
  },
  {
    "name": "Ho Chuck Centre",
    "address": "Ho Chuck Centre, 2-10 Kwai Yi Road, Kwai Fong, Hong Kong",
    "lat": 22.3561644,
    "lng": 114.1281646
  },
  {
    "name": "Ho Shun Fook Building",
    "address": "Ho Shun Fook Building, Sau Fu Street, Yuen Long, Hong Kong",
    "lat": 22.4454696,
    "lng": 114.0263149
  },
  {
    "name": "Hoi Cheung Building",
    "address": "Hoi Cheung Building, 72- 74 Tai Po Road, Hong Kong",
    "lat": 22.3289814,
    "lng": 114.1669263
  },
  {
    "name": "Hoi Lai Estate",
    "address": "Hoi Lai Shopping Centre, Lai Chi Kok, Hong Kong",
    "lat": 22.3325441,
    "lng": 114.1468151
  },
  {
    "name": "Hong Kong Garden",
    "address": "100 Castle Peak Road, Tsing Lung Tau, Tsuen Wan, Hong Kong",
    "lat": 22.3629,
    "lng": 114.043515
  },
  {
    "name": "Hong Tin Court",
    "address": "Hong Tin Court, Lam Tin, Hong Kong",
    "lat": 22.3077855,
    "lng": 114.2343596
  },
  {
    "name": "Horizon Suite Hotel",
    "address": "Horizon Suite Hotel, 29 On Chun Street, Ma On Shan, Sha Tin, Hong Kong",
    "lat": 22.4263899,
    "lng": 114.2273938
  },
  {
    "name": "JD Mall",
    "address": "JD Mall, 233-239 Nathan Road, Jordan, Hong Kong",
    "lat": 22.3049096,
    "lng": 114.171385
  },
  {
    "name": "Jat Min Chuen",
    "address": "Jat Min Chuen, 7 Jat Min Chuen Street, Sha Tin, Hong Kong",
    "lat": 22.3767189,
    "lng": 114.1917738
  },
  {
    "name": "Jubilee Garden",
    "address": "Jubilee Garden, 2-18 Lok King Street, Fo Tan, Sha Tin, Hong Kong",
    "lat": 22.3973879,
    "lng": 114.2002727
  },
  {
    "name": "Ka Fuk Estate",
    "address": "Shopping Centre, Ka Fuk Estate, Fanling, Hong Kong",
    "lat": 22.4869909,
    "lng": 114.13799
  },
  {
    "name": "Ka Wai Chuen",
    "address": "Ka Lim Lau, Ma Tau Wai Road, Ka Wai Chuen, Hunghom, Hong Kong",
    "lat": 22.396428,
    "lng": 114.109497
  },
  {
    "name": "Kai Tak Garden",
    "address": "Kai Tak Garden Phase II, 121 Choi Hung Road, Wong Tai Sin, Hong Kong",
    "lat": 22.3430662,
    "lng": 114.1908783
  },
  {
    "name": "Kam Wah Building, Canton Road",
    "address": "Kam Wah Building, No 831 Canton Road, Yau Ma Tei, Hong Kong",
    "lat": 22.3131317,
    "lng": 114.1681803
  },
  {
    "name": "Kam Wah Street",
    "address": "Kam Wa Building, 2-18 Kam Wa Street, Shau Kei Wan, Hong Kong",
    "lat": 22.2782168,
    "lng": 114.2291701
  },
  {
    "name": "Kam Ying Court",
    "address": "Kam Ying Court Shopping Centre, Ma On Shan, Hong Kong",
    "lat": 22.4030699,
    "lng": 114.2449937
  },
  {
    "name": "King Lam Estate",
    "address": "King Lam Shopping Centre, King Lam Estate, Tseung Kwan O, Hong Kong",
    "lat": 22.3119357,
    "lng": 114.2568776
  },
  {
    "name": "King Man Court, Fort Street",
    "address": "King Man Court, No 19 Fort Street, North Point, Hong Kong",
    "lat": 22.2897705,
    "lng": 114.196209
  },
  {
    "name": "Kingswood Villa, Phase 1",
    "address": "Commercial Centre, Kingswood Villas, Phase I, Tin Shui Wai, Hong Kong",
    "lat": 22.4606419,
    "lng": 114.0041996
  },
  {
    "name": "Kiu Fat Building",
    "address": "Kiu Fat Building, Nos 115, 117 & 119 Queen’s Road West, Hong Kong",
    "lat": 22.2866,
    "lng": 114.14638
  },
  {
    "name": "Koway Court",
    "address": "Portion B on 1/ Fl, Koway Court, No 111 Chai Wan Road, Hong Kong",
    "lat": 22.266491,
    "lng": 114.233938
  },
  {
    "name": "Kwong Yuen Shopping Centre",
    "address": "Kwong Yuen Shopping Centre Block 2, Kwong Yuen Estate, Siu Lek Yuen Road, Sha Tin, Hong Kong",
    "lat": 22.3833718,
    "lng": 114.2098216
  },
  {
    "name": "La Fontaine",
    "address": "La Fontaine, 6 Chui Lok Street, Tai Po, Hong Kong",
    "lat": 22.4532104,
    "lng": 114.164488
  },
  {
    "name": "Lai Chi Kok",
    "address": "288 Lai Chi Kok Road, Hong Kong",
    "lat": 22.3279217,
    "lng": 114.1615035
  },
  {
    "name": "Lai Yiu Estate",
    "address": "Lai Yiu Shopping Centre, Lai Yiu Estate, Lai Yiu Street, Kwai Chung, Hong Kong",
    "lat": 22.3535179,
    "lng": 114.1309097
  },
  {
    "name": "Lee Ga Building",
    "address": "129-133 Sai Wan Ho Street, Sai Wan Ho, Hong Kong",
    "lat": 22.281323,
    "lng": 114.22165
  },
  {
    "name": "Lee On Estate",
    "address": "Lee On Shopping Centre, Lee On Estate, Ma On Shan, Sha Tin, Hong Kong",
    "lat": 22.3771304,
    "lng": 114.1974398
  },
  {
    "name": "Lei Tung Estate",
    "address": "Lei Tung Commercial Centre (Phase 1), Lei Tung Estate, Lei Tung Estate Road, Ap Lei Chau, Hong Kong",
    "lat": 22.2433743,
    "lng": 114.1578885
  },
  {
    "name": "Lok Fu Plaza",
    "address": "Lok Fu Plaza, Wang Tau Hom, Hong Kong",
    "lat": 22.339594,
    "lng": 114.188228
  },
  {
    "name": "Lok Man Sun Chuen",
    "address": "Lok Man Sun Chuen, To Kwa Wan, Hong Kong",
    "lat": 22.315266,
    "lng": 114.186565
  },
  {
    "name": "Lok Wah Estate",
    "address": "Lok Wah Commercial Centre, Lok Wah North Estate, Ngau Tau Kok, Hong Kong",
    "lat": 22.319683,
    "lng": 114.1676927
  },
  {
    "name": "Mai Chung Mansion, Wo Tong Tsui Street",
    "address": "Mai Chung Mansion, 87-89 Wo Tong Tsui Street, Kwai Chung, Hong Kong",
    "lat": 22.3674962,
    "lng": 114.1322769
  },
  {
    "name": "Man Sang Commercial Building, Prince Edward Road",
    "address": "Man Sang Commercial Building, 348-352 Prince Edward Road West City, Hong Kong",
    "lat": 22.3275306,
    "lng": 114.187176
  },
  {
    "name": "Mei Foo Sun Chuen",
    "address": "Stage 7, Mei Foo Sun Chuen, 12 Lai Wan Road, Hong Kong",
    "lat": 22.3380404,
    "lng": 114.1382223
  },
  {
    "name": "Ming Tak Estate",
    "address": "Ming Tak Estate Shopping Centre, Tseung Kwan O, Hong Kong",
    "lat": 22.3060498,
    "lng": 114.2511234
  },
  {
    "name": "Moon Lok Dai Ha, Sha Tsui Road",
    "address": "Fook Chi Lau, Moon Lok Dai Ha, Sha Tsui Road, Tsuen Wan, Hong Kong",
    "lat": 22.3723339,
    "lng": 114.1122338
  },
  {
    "name": "Mui Wo",
    "address": "Mui Wo Building, 12 Mui Wo Ferry Pier Road, Mui Wo, Hong Kong",
    "lat": 22.2641581,
    "lng": 114.000715
  },
  {
    "name": "New Kowloon Plaza",
    "address": "New Kowloon Plaza, 38 Tai Kok Tsui Road, Hong Kong",
    "lat": 22.3197653,
    "lng": 114.1626069
  },
  {
    "name": "Pak Hoo Mansion",
    "address": "Pak Hoo Mansion, Nos 554, 558 & 560 Queen’s Road West, Hong Kong",
    "lat": 22.286118,
    "lng": 114.133998
  },
  {
    "name": "Pak Tin Estate",
    "address": "Pak Tin Commercial Centre, Pak Tin Estate, Pak Wan Street, Shek Kip Mei, Hong Kong",
    "lat": 22.3368312,
    "lng": 114.1670838
  },
  {
    "name": "Pierhead Garden",
    "address": "Pierhead Garden, 168-236 Wu Chui Road, Tuen Mun, Hong Kong",
    "lat": 22.372715,
    "lng": 113.96611
  },
  {
    "name": "Ping Shek Estate",
    "address": "Tsuen Shek House, Ping Shek Estate, Tsuen Shek House, Ping Shek Estate, Ngau Chi Wan, Hong Kong",
    "lat": 22.3368838,
    "lng": 114.213787
  },
  {
    "name": "Po Lam Estate",
    "address": "Po Lam Shopping Centre, Tseung Kwan O, Hong Kong",
    "lat": 22.3251934,
    "lng": 114.2559991
  },
  {
    "name": "Po Tin Estate",
    "address": "Po Tin Shopping Centre, Po Tin Estate, Ming Kum Road, Tuen Mun, Hong Kong",
    "lat": 22.4040222,
    "lng": 113.9672059
  },
  {
    "name": "Praya Street",
    "address": "97A-99 Praya Road, Cheung Chau, Hong Kong",
    "lat": 22.2069769,
    "lng": 114.0287036
  },
  {
    "name": "Rambler Crest",
    "address": "Rambler Plaza, 1 Tsing Yi Road, Tsing Yi, Hong Kong",
    "lat": 22.3418319,
    "lng": 114.1104373
  },
  {
    "name": "Rhythm Garden",
    "address": "Rhythm Garden, 242 Choi Hung Road, Hong Kong",
    "lat": 22.33599,
    "lng": 114.201942
  },
  {
    "name": "Richland Gardens",
    "address": "Richland Gardens Shopping Centre, 80 Wang Kwong Road Bay, Hong Kong",
    "lat": 22.3296753,
    "lng": 114.2058921
  },
  {
    "name": "Sai Kung Town Villa",
    "address": "Sai Kung Town Centre, Sai Kung, Hong Kong",
    "lat": 22.4075171,
    "lng": 114.3222577
  },
  {
    "name": "San Fung Avenue",
    "address": "100 San Fung Avenue, Sheung Shui, Hong Kong",
    "lat": 22.50463,
    "lng": 114.1268183
  },
  {
    "name": "Science University",
    "address": "Academy Building, The Hong Kong University of Science and Technology, Clear Water Bay Road, Clear Water Bay, Sai Kung, Hong Kong",
    "lat": 22.3104901,
    "lng": 114.2836275
  },
  {
    "name": "Shek Kip Mei Estate",
    "address": "Ancillary Facilities Block, Shek Kip Mei Estate Phase II, Shek Kip Mei, Hong Kong",
    "lat": 22.3332974,
    "lng": 114.167205
  },
  {
    "name": "Shek Lei Estate",
    "address": "Shek Lei Shopping Centre, Shek Lei (I) Estate, Kwai Chung, Hong Kong",
    "lat": 22.3656637,
    "lng": 114.1391977
  },
  {
    "name": "Shek Mun Estate",
    "address": "Shek Mun Estate, On Ming Street, Sha Tin, Hong Kong",
    "lat": 22.387077,
    "lng": 114.2082308
  },
  {
    "name": "Shek Pai Wan Estate",
    "address": "Shek Pai Wan Shopping Centre, Shek Pai Wan Estate, Aberdeen, Hong Kong",
    "lat": 22.2520859,
    "lng": 114.1587983
  },
  {
    "name": "Shek Wai Kok Estate",
    "address": "Shek Wai Kok Estate Commercial Centre, Tsuen Wan, Hong Kong",
    "lat": 22.3164209,
    "lng": 114.1702704
  },
  {
    "name": "Shek Yam Estate",
    "address": "Shek Yam Shopping Centre, Shek Yam Estate, Kwai Chung, Hong Kong",
    "lat": 22.3618749,
    "lng": 114.1350173
  },
  {
    "name": "Shouson Place",
    "address": "Shouson Place, 16E Shouson Hill Road, Shouson Hill, Hong Kong",
    "lat": 22.396428,
    "lng": 114.109497
  },
  {
    "name": "Shui Wo Street",
    "address": "42 Shui Wo Street, Kwun Tong, Hong Kong",
    "lat": 22.315447,
    "lng": 114.2246391
  },
  {
    "name": "Shun Lee Estate",
    "address": "Lee Hong House, Shun Lee Estate, Kwun Tong, Hong Kong",
    "lat": 22.3305935,
    "lng": 114.2262793
  },
  {
    "name": "Siu Hong Court",
    "address": "Siu Hong Shopping Centre, Siu Hong Court, 2-22 Siu Hong Road, Tuen Mun, Hong Kong",
    "lat": 22.412942,
    "lng": 113.977034
  },
  {
    "name": "Siu Lun Court",
    "address": "Siu Lun Court Shopping Centre, Siu Lun Court, Tuen Mun, Hong Kong",
    "lat": 22.3855447,
    "lng": 113.9768777
  },
  {
    "name": "Siu Sai Wan Shopping Centre",
    "address": "Siu Sai Wan Shopping Centre, Siu Sai Wan Estate, Hong Kong",
    "lat": 22.2625651,
    "lng": 114.2513555
  },
  {
    "name": "Smiling Shaukeiwan Plaza",
    "address": "Smiling Shaukeiwan Plaza, No 360A Shaukeiwan Road, Hong Kong",
    "lat": 22.396428,
    "lng": 114.109497
  },
  {
    "name": "Springdale Villas",
    "address": "Springdale Villas, 80 Ma Tin Road, Yuen Long, Hong Kong",
    "lat": 22.440633,
    "lng": 114.021398
  },
  {
    "name": "Sui Wo Court",
    "address": "Shopping Centre, Sui Wo Court, Sui Wo Road, Sha Tin, Hong Kong",
    "lat": 22.3985002,
    "lng": 114.1929823
  },
  {
    "name": "Summit Insurance Building, Nathan Road",
    "address": "Summit Insurance Building, No 789-793 Nathan Road, Mong Kok, Hong Kong",
    "lat": 22.3259721,
    "lng": 114.1677623
  },
  {
    "name": "Sun Chui Estate",
    "address": "Sun Chui Estate, 2 Chui Tin Street, Shatin, Hong Kong",
    "lat": 22.3714238,
    "lng": 114.1819743
  },
  {
    "name": "Sun Tin Wai Estate",
    "address": "Sun Tin Wai Shopping Centre, Sun Tin Wai Estate, Sha Tin, Hong Kong",
    "lat": 22.3771304,
    "lng": 114.1974398
  },
  {
    "name": "Sun Tuen Mun Centre",
    "address": "Sun Tuen Mun Centre, 55-65 Lung Mun Road, Tuen Mun, Hong Kong",
    "lat": 22.3807222,
    "lng": 113.9658671
  },
  {
    "name": "Sunlight Building, Shun Ning Road",
    "address": "Sunlight Building, 273 Shun Ning Road, Cheung Sha Wan, Hong Kong",
    "lat": 22.3372904,
    "lng": 114.1584732
  },
  {
    "name": "Tai Wai Road",
    "address": "Yuet On Building, 49-53 Tai Wai Road, Sha Tin, Hong Kong",
    "lat": 22.3750783,
    "lng": 114.1776086
  },
  {
    "name": "Tai Wing Lane",
    "address": "Foon Lok Building, 16-22 Tai Wing Lane, Tai Po, Hong Kong",
    "lat": 22.4473678,
    "lng": 114.1665548
  },
  {
    "name": "Tai Wo Hau Commerical Centre 2",
    "address": "Tai Wo Hau Commercial Centre 2, Shek Tau Street, Kwai Chung, Hong Kong",
    "lat": 22.366591,
    "lng": 114.1230799
  },
  {
    "name": "Tak Tin Shopping Centre",
    "address": "Tak Tin Shopping Centre, Tak Tin Estate, Lam Tin, Hong Kong",
    "lat": 22.310903,
    "lng": 114.259396
  },
  {
    "name": "Tin Ma Court",
    "address": "Tin Ma Court Commercial Centre, Lung Cheung Road, Hong Kong",
    "lat": 22.396428,
    "lng": 114.109497
  },
  {
    "name": "Tin Ping Estate",
    "address": "Tin Ping Estate Shopping Centre, Sheung Shui, Hong Kong",
    "lat": 22.4948004,
    "lng": 114.1241947
  },
  {
    "name": "Tin Shing Court",
    "address": "Tin Shing Shopping Centre, Tin Shing Court, Tin Shui Wai, Hong Kong",
    "lat": 22.4488023,
    "lng": 114.0028987
  },
  {
    "name": "Tin Shui Shopping Centre",
    "address": "Tin Shui Shopping Centre, 9 Tin Shui Road, Tin Shui Wai, Hong Kong",
    "lat": 22.4561363,
    "lng": 113.9984383
  },
  {
    "name": "Tin Wan Estate",
    "address": "Tin Wan Shopping Centre, Tin Wan Estate, Tin Wan Street, Aberdeen, Hong Kong",
    "lat": 22.2500719,
    "lng": 114.1496302
  },
  {
    "name": "Tin Yiu Plaza",
    "address": "Tin Yiu Plaza, Tin Yiu Estate, Tin Shui Wai, Hong Kong",
    "lat": 22.45222,
    "lng": 114.00217
  },
  {
    "name": "Tseng Choi Street",
    "address": "Kam Men Mansion, No 15 Tseng Choi Street, Tuen Mun, Hong Kong",
    "lat": 22.4024246,
    "lng": 113.9779248
  },
  {
    "name": "Tsing Yi Garden",
    "address": "Tsing Yi Square, 7-19 Tsing Luk Street, Tsing Yi, Hong Kong",
    "lat": 22.3343524,
    "lng": 114.1082083
  },
  {
    "name": "Tsui Chuk Garden",
    "address": "Tsui Chuk Commercial Complex, Chuk Yuen, Hong Kong",
    "lat": 22.396428,
    "lng": 114.109497
  },
  {
    "name": "Tsui Lam Estate",
    "address": "Tsui Lam Shopping Centre, Tseung Kwan O, Hong Kong",
    "lat": 22.3226864,
    "lng": 114.2489873
  },
  {
    "name": "Tsz Ching Estate",
    "address": "Tsz Ching Shopping Centre II, Tsz Ching Estate, Tsz Wan Shan, Hong Kong",
    "lat": 22.3515518,
    "lng": 114.200412
  },
  {
    "name": "Tsz Wan Shan Shopping Centre",
    "address": "Tsz Wan Shan Shopping Centre, 23 Yuk Wah Street, Tsz Wan Shan, Hong Kong",
    "lat": 22.3482096,
    "lng": 114.2005978
  },
  {
    "name": "Tung Nam Factory Building, Ma Tau Kok Road",
    "address": "Tung Nam Factory Building, 40 Ma Tau Kok Road, To Kwa Wan, Hong Kong",
    "lat": 22.3220848,
    "lng": 114.1899161
  },
  {
    "name": "Tung Tau Estate",
    "address": "Hong Tung House, Tung Tau Estate, Wong Tai Sin, Hong Kong",
    "lat": 22.3327236,
    "lng": 114.1934922
  },
  {
    "name": "Upper East 18",
    "address": "18 Upper East, No 18-36 Shing On Street, Sai Wan Ho, Hong Kong",
    "lat": 22.2813028,
    "lng": 114.2211477
  },
  {
    "name": "Uptown Plaza",
    "address": "Uptown Plaza, 9 Nam Wan Road, Tai Po, Hong Kong",
    "lat": 22.444039,
    "lng": 114.169509
  },
  {
    "name": "Valiant Industrial Centre, Fo Tan",
    "address": "Valiant Industrial Centre, 2-12 Au Pui Wan Street, Fo Tan, Hong Kong",
    "lat": 22.3973884,
    "lng": 114.1961394
  },
  {
    "name": "Verbena Heights",
    "address": "Verbena Heights, 8 Mau Tai Road, Tseung Kwan O, Hong Kong",
    "lat": 22.3225934,
    "lng": 114.2559063
  },
  {
    "name": "Wah Kwai Estate",
    "address": "Wah Kwai Shopping Centre, Wah Kwai Estate, Wah Lung Path, Aberdeen, Hong Kong",
    "lat": 22.2496493,
    "lng": 114.1392186
  },
  {
    "name": "Wah Sum Estate",
    "address": "Wah Sum Shopping Centre, Wah Sum Estate, 18 Yat Ming Road, Fanling, Hong Kong",
    "lat": 22.4879076,
    "lng": 114.1419504
  },
  {
    "name": "Wai Hang Cheong",
    "address": "Portion of Arcade Shop, Hang Chien Court, 108 Mei King Street, To Kwa Wan, Hong Kong",
    "lat": 22.317928,
    "lng": 114.1919717
  },
  {
    "name": "Wai Wah Centre",
    "address": "Wai Wah Centre, 11-17 Sha Tin Centre Street, Sha Tin, Hong Kong",
    "lat": 22.380828,
    "lng": 114.187083
  },
  {
    "name": "Waldorf Garden",
    "address": "2B-4A & 2B-5, Waldorf Garden, 1 Tuen Lee Street, Tuen Mun, Hong Kong",
    "lat": 22.391902,
    "lng": 113.9782
  },
  {
    "name": "Walton Estate",
    "address": "Walton Estate, Yee Shing Street, Chai Wan, Hong Kong",
    "lat": 22.265036,
    "lng": 114.239437
  },
  {
    "name": "Wang Fai Centre",
    "address": "Wang Fai Centre, Wang Tau Hom Estate, Fu Mei Street, Wang Tau Hom, Hong Kong",
    "lat": 22.340641,
    "lng": 114.1866336
  },
  {
    "name": "Waterside Plaza",
    "address": "Waterside Plaza, 38 Wing Shun Street, Tsuen Wan, Hong Kong",
    "lat": 22.3638311,
    "lng": 114.1143008
  },
  {
    "name": "Western Garden",
    "address": "Western Garden, 84-84A First Street, Sai Ying Pun, Hong Kong",
    "lat": 22.286575,
    "lng": 114.140758
  },
  {
    "name": "Wing Shing Building, Yen Chow Street",
    "address": "Wing Shing Building, 116 Yen Chow Street, Sham Shui Po, Hong Kong",
    "lat": 22.3332304,
    "lng": 114.1626534
  },
  {
    "name": "Wong Tai Sin Shopping Centre",
    "address": "Wong Tai Sin Shopping Centre, Wong Tai Sin Estate, Hong Kong",
    "lat": 22.307152,
    "lng": 114.235589
  },
  {
    "name": "Wun Sha Tower",
    "address": "Wun Sha Tower, No 33-45 Wun Sha Street, Tai Hang, Hong Kong",
    "lat": 22.2782766,
    "lng": 114.1932135
  },
  {
    "name": "Yan Oi Tong Jockey Club Community",
    "address": "18 Kai Man Path, Tuen Mun, Hong Kong",
    "lat": 22.396487,
    "lng": 113.975941
  },
  {
    "name": "Yau Lai Shopping Centre",
    "address": "Yau Lai Shopping Centre, No 9 Yau Tong Road, Yau Tong, Hong Kong",
    "lat": 22.2985562,
    "lng": 114.237053
  },
  {
    "name": "Yee On Court",
    "address": "Yee On Court, 124C-124D Argyle Street, Mong Kok, Hong Kong",
    "lat": 22.3202757,
    "lng": 114.1760992
  },
  {
    "name": "Yiu On Estate",
    "address": "Yiu On Shopping Centre, Yiu On Estate, No 2 Hang Hong Street, Ma On Shan, Shatin, Hong Kong",
    "lat": 22.396428,
    "lng": 114.109497
  },
  {
    "name": "Yu Chui Court",
    "address": "Yu Chui Shopping Centre, Yu Chui Court, Sha Tin, Hong Kong",
    "lat": 22.380353,
    "lng": 114.205136
  },
  {
    "name": "Yuen Long Plaza",
    "address": "Yuen Long Plaza, 249-251 Castle Peak Road, Yuen Long, Hong Kong",
    "lat": 22.4443636,
    "lng": 114.0240858
  },
  {
    "name": "Aberdeen Centre",
    "address": "Aberdeen Centre, 13-23 Nam Ning Street, Aberdeen, Hong Kong",
    "lat": 22.248275,
    "lng": 114.15445
  },
  {
    "name": "Amoy Plaza",
    "address": "Amoy Plaza, Phase I, 77 Ngau Tau Kok Road, Hong Kong",
    "lat": 22.323976,
    "lng": 114.216218
  },
  {
    "name": "Belair Monte",
    "address": "Belair Monte, 3 Ma Sik Road, Fanling, Hong Kong",
    "lat": 22.501173,
    "lng": 114.1454914
  },
  {
    "name": "Belcher's Street",
    "address": "17-35 Belcher's Street & 36 - 38 Kennedy Town Praya, Kennedy Town, Hong Kong",
    "lat": 22.2852054,
    "lng": 114.1313733
  },
  {
    "name": "Belvedere Garden",
    "address": "Belvedere Garden Phase 3, 625 Castle Peak Road, Tsuen Wan, Hong Kong",
    "lat": 22.3706047,
    "lng": 114.1202205
  },
  {
    "name": "Cheung Fat Estate",
    "address": "Cheung Fat Plaza, Cheung Fat Estate, Tsing Yi, Hong Kong",
    "lat": 22.358487,
    "lng": 114.107261
  },
  {
    "name": "Chi Fu Superstore",
    "address": "Chi Fu Landmark Pok Fu Lam, Hong Kong",
    "lat": 22.257928,
    "lng": 114.1388261
  },
  {
    "name": "Choi Yuen Plaza",
    "address": "Choi Yuen Plaza, Choi Yuen Estate, Sheung Shui, Hong Kong",
    "lat": 22.500708,
    "lng": 114.125776
  },
  {
    "name": "Chung Fu Superstore",
    "address": "Chung Fu Plaza Stage 2, Tin Fu Court, 33 Tin Wah Road, Tin Shui Wai, Hong Kong",
    "lat": 22.462461,
    "lng": 113.997919
  },
  {
    "name": "Chung Hwa Building, Ma Hang Chung",
    "address": "Chung Hwa Building, Nos 3A-3C Ma Hang Chung Road, To Ka Wan, Hong Kong",
    "lat": 22.396428,
    "lng": 114.109497
  },
  {
    "name": "Commercial Complex, Park Island",
    "address": "Commercial Complex, Park Island, Ma Wan Island, Hong Kong",
    "lat": 22.3069383,
    "lng": 114.2617571
  },
  {
    "name": "Discovery Park",
    "address": "Discovery Park, Tsuen Wan, Hong Kong",
    "lat": 22.3763797,
    "lng": 114.1116067
  },
  {
    "name": "Fanling Superstore",
    "address": "Fanling Town Centre, 18 Fanling Station Road, Fanling, Hong Kong",
    "lat": 22.492937,
    "lng": 114.139073
  },
  {
    "name": "Hang King Shopping Arcade",
    "address": "Hang King Shopping Arcade, Hang King Garden, 9 Wing Fong Road, Kwai Chung, Hong Kong",
    "lat": 22.3604769,
    "lng": 114.1278523
  },
  {
    "name": "Hau Tak Estate",
    "address": "Hau Tak Shopping Centre, Hau Tak Estate, Tseung Kwan O, Hong Kong",
    "lat": 22.32233,
    "lng": 114.213055
  },
  {
    "name": "Healthy Garden",
    "address": "Fitfort, Healthy Garden, 560 King’s Road, North Point, Hong Kong",
    "lat": 22.2919191,
    "lng": 114.2029268
  },
  {
    "name": "Heng Fa Chuen",
    "address": "West Wing, Heng Fa Chuen Shopping Centre, Heng Fa Chuen, Hong Kong",
    "lat": 22.396428,
    "lng": 114.109497
  },
  {
    "name": "Island Resort",
    "address": "Island Resort Mall, 28 Siu Sai Wan Rd, Hong Kong",
    "lat": 22.2666145,
    "lng": 114.2504921
  },
  {
    "name": "Kam Yuck Building, Wai Chi Lane",
    "address": "Kam Yuck Building, No 2 Wai Chi Lane, Sham Shui Po, Hong Kong",
    "lat": 22.3346493,
    "lng": 114.1669263
  },
  {
    "name": "Kau Wah Keng Superstore",
    "address": "The Household Centre, Nob Hill, 8 King Lai Path, Kau Wah Keng, Lai Chi Kok, Hong Kong",
    "lat": 22.337265,
    "lng": 114.148033
  },
  {
    "name": "Kingswood Ginza",
    "address": "Harbour Plaza Resort City Tower 1, Kingswood Villas, 12 - 18 Tin Yan Road, Tin Shui Wai, Hong Kong",
    "lat": 22.457249,
    "lng": 114.004134
  },
  {
    "name": "Kornhill Plaza",
    "address": "Wet Market, Portion of Mezzanine Floor, Kornhill Plaza (North), 1 Kornhill Rd, Hong Kong",
    "lat": 22.2850769,
    "lng": 114.2158703
  },
  {
    "name": "Laguna Plaza",
    "address": "Laguna Plaza, Laguna City, 88 Cha Kwo Ling Road, Kwun Tong, Hong Kong",
    "lat": 22.3068298,
    "lng": 114.2279975
  },
  {
    "name": "Leung King Estate",
    "address": "Leung King Shopping Centre, 31 Tin King Road, Tuen Mun, Hong Kong",
    "lat": 22.408183,
    "lng": 113.963784
  },
  {
    "name": "Lucky Plaza Superstore",
    "address": "Lucky Plaza, 1-15 Wang Pok Street, Sha Tin, Hong Kong",
    "lat": 22.382688,
    "lng": 114.191239
  },
  {
    "name": "Ma On Shan Plaza",
    "address": "Ma On Shan Plaza, 608 Sai Sha Road, Ma On Shan, Hong Kong",
    "lat": 22.4253282,
    "lng": 114.2310624
  },
  {
    "name": "Marina Square",
    "address": "Marina Square, South Horizon, Ap Lei Chau, Hong Kong",
    "lat": 22.2437659,
    "lng": 114.1468151
  },
  {
    "name": "Mei Foo Plaza",
    "address": "Shopping Centre, No 69-119 Broadway, Stage IV, Mei Foo Sun Chuen, Hong Kong",
    "lat": 22.3366356,
    "lng": 114.1402195
  },
  {
    "name": "Metro City",
    "address": "Metro City Phase II, 8 Yan King Road, Tseung Kwan O, Hong Kong",
    "lat": 22.3225615,
    "lng": 114.2592728
  },
  {
    "name": "Metro Town",
    "address": "Metro Town, 8 King Ling Road, Tseung Kwan O, Hong Kong",
    "lat": 22.304119,
    "lng": 114.251991
  },
  {
    "name": "Plaza Hollywood",
    "address": "Plaza Hollywood, Diamond Hill, Hong Kong",
    "lat": 22.3406515,
    "lng": 114.2020839
  },
  {
    "name": "Po Tat Shopping Centre",
    "address": "Po Tat Shopping Centre, Sau Mau Ping, Hong Kong",
    "lat": 22.317809,
    "lng": 114.236095
  },
  {
    "name": "Provident Centre Homeworld",
    "address": "Homeworld, Provident Centre, North Point, Hong Kong",
    "lat": 22.291975,
    "lng": 114.195394
  },
  {
    "name": "Sceneway Plaza",
    "address": "Sceneway Plaza, 8 Sceneway Road, Lam Tin, Hong Kong",
    "lat": 22.3069951,
    "lng": 114.2335701
  },
  {
    "name": "Sha Tin City One",
    "address": "Ngan Shing Commercial Centre, Sha Tin City One, Hong Kong",
    "lat": 22.386894,
    "lng": 114.20305
  },
  {
    "name": "Sheung Tak Estate",
    "address": "Sheung Tak Shopping Centre, Sheung Tak Estate, Tseung Kwan O, Hong Kong",
    "lat": 22.310903,
    "lng": 114.259396
  },
  {
    "name": "Smartland",
    "address": "Smartland, Tsuen Wah Street, Tsuen Wan, Hong Kong",
    "lat": 22.368726,
    "lng": 114.1213304
  },
  {
    "name": "Smithfield Road",
    "address": "Smithfield Road, Kennedy Town, Hong Kong",
    "lat": 22.283279,
    "lng": 114.128118
  },
  {
    "name": "Tai Po Centre",
    "address": "Tai Po Shopping Centre, Tai Po, Hong Kong",
    "lat": 22.458008,
    "lng": 114.171077
  },
  {
    "name": "Tai Wo Estate",
    "address": "Tai Wo Shopping Centre Phase 1, Tai Wo Estate, Kai Wo Road, Tai Po, Hong Kong",
    "lat": 22.4518708,
    "lng": 114.1623052
  },
  {
    "name": "Tseuk Luk Street",
    "address": "No 86 Tseuk Luk Street, San Po Kong, Hong Kong",
    "lat": 22.335078,
    "lng": 114.197224
  },
  {
    "name": "Tsuen Wan Centre, Tsuen King Circuit",
    "address": "Tsuen Wan Centre, 88 Tsuen King Circuit, Tsuen Wan, Hong Kong",
    "lat": 22.37898,
    "lng": 114.108169
  },
  {
    "name": "Wah Ming Centre",
    "address": "Wah Ming Centre, No 421 Queen’s Road West, Hong Kong",
    "lat": 22.2865041,
    "lng": 114.1371404
  },
  {
    "name": "Walton Estate",
    "address": "Walton Estate, Chai Wan Road, Hong Kong",
    "lat": 22.26404,
    "lng": 114.239784
  },
  {
    "name": "Whampoa Garden Site 12",
    "address": "Homeworld, Wonderful Worlds of Whampoa, Tak Hong Street, Hung Hom, Hong Kong",
    "lat": 22.3057531,
    "lng": 114.1907003
  },
  {
    "name": "Whampoa Garden Site 3",
    "address": "Whampoa Garden, Hung Hom, Hong Kong",
    "lat": 22.3039,
    "lng": 114.1922
  },
  {
    "name": "87-89 Wo Tong Tsui Street",
    "address": "87-89 Wo Tong Tsui Street, Kwai Chung, Hong Kong",
    "lat": 22.367665,
    "lng": 114.13234
  },
  {
    "name": "Ching Long Shopping Centre",
    "address": "Ching Long Shopping Centre City, Hong Kong",
    "lat": 22.3315397,
    "lng": 114.2029199
  },
  {
    "name": "Chung Shun Building, Kowloon City Road",
    "address": "Chung Shun Bldg, No 56B & 56C Kowloon City Road, Hong Kong",
    "lat": 22.3173128,
    "lng": 114.1887499
  },
  {
    "name": "Cosmopolitan Estate, Ivy Street",
    "address": "Tai Shing Building (Block H of Cosmopolitan Estate), Nos 70-86 Ivy Street, Hong Kong",
    "lat": 22.321578,
    "lng": 114.161086
  },
  {
    "name": "Kwai Fat Building, Shek Yam Road",
    "address": "Kwai Fat Building, No 98 Shek Yam Road, Kwai Chung, Hong Kong",
    "lat": 22.3700567,
    "lng": 114.1394067
  },
  {
    "name": "Kweilin Street",
    "address": "No 75 Kweilin Street, Sham Shui Po, Hong Kong",
    "lat": 22.3292336,
    "lng": 114.1600393
  },
  {
    "name": "Lai King Estate",
    "address": "Ming King House, Lai King Estate, Kwai Chung, Hong Kong",
    "lat": 22.3500305,
    "lng": 114.1263314
  },
  {
    "name": "Mei Lam Estate",
    "address": "Mei Lam Shopping Centre, Mei Lam Estate, 30 Mei Tin Road, Tai Wai, Hong Kong",
    "lat": 22.3773267,
    "lng": 114.1757943
  },
  {
    "name": "Sha Tau Kok Chuen",
    "address": "Sha Tau Kok Chuen, Hong Kong",
    "lat": 22.546612,
    "lng": 114.222306
  },
  {
    "name": "Shun Ning Road",
    "address": "No 281 Shun Ning Road, Hong Kong",
    "lat": 22.337697,
    "lng": 114.157949
  },
  {
    "name": "Wo Lok Estate",
    "address": "Ping On House, Wo Lok Estate, Kwun Tong, Hong Kong",
    "lat": 22.3154267,
    "lng": 114.2280672
  },
  {
    "name": "Yan On Estate",
    "address": "Yan On shopping Centre, Yan On Estate, Ma On Shan, Hong Kong",
    "lat": 22.4030699,
    "lng": 114.2449937
  },
  {
    "name": "Yen Dack Building, Chun Yeung Street",
    "address": "Ground Floor, Yen Dack Building, Nos 93-101, 105-113 Chun Yeung Street, Nos 7A & 7B Tong Shui Road, Hong Kong",
    "lat": 22.291568,
    "lng": 114.198498
  },
  {
    "name": "Yuk Wah Crescent",
    "address": "Ming Fung Mansion, Nos 12 & 14 Yuk Wah Crescent, Tsz Wan Shan, Hong Kong",
    "lat": 22.3466396,
    "lng": 114.2015325
  },
  {
    "name": "Baguio Villa",
    "address": "Baguio Villa, 550 Victoria Road, Pok Fu Lam, Hong Kong",
    "lat": 22.262071,
    "lng": 114.1323001
  },
  {
    "name": "Bonham Road",
    "address": "Wing Cheong Court, 37-47 Bonham Road, Hong Kong",
    "lat": 22.2848198,
    "lng": 114.141822
  },
  {
    "name": "Caribbean Coast",
    "address": "Caribbean Bazaar, 1 Kin Tung Road, Tung Chung, Hong Kong",
    "lat": 22.29212,
    "lng": 113.949882
  },
  {
    "name": "Chun Fai Road",
    "address": "Chun Fai Centre, No 9 Chun Fai Road, Hong Kong",
    "lat": 22.272682,
    "lng": 114.1933064
  },
  {
    "name": "Cyberport",
    "address": "Service Annex, Cyberport, Pok Fu Lam, Hong Kong",
    "lat": 22.2679201,
    "lng": 114.1290719
  },
  {
    "name": "Fook Sing Court",
    "address": "Entrance Lobby, 378 Fook Sing Court, Queen's Road, Hong Kong",
    "lat": 22.2859623,
    "lng": 114.1486962
  },
  {
    "name": "Hilton Tower",
    "address": "Hilton Towers, 96 Granville Road, Tsim Sha Tsui, Hong Kong",
    "lat": 22.299555,
    "lng": 114.1771442
  },
  {
    "name": "Hong Lok Yuen",
    "address": "Hong Lok Yuen Commercial Centre, Tai Po, Hong Kong",
    "lat": 22.4474938,
    "lng": 114.1690628
  },
  {
    "name": "Island Place",
    "address": "Island Place, 500 King's Road, North Point, Hong Kong",
    "lat": 22.291181,
    "lng": 114.20234
  },
  {
    "name": "Lei King Wan",
    "address": "Lei King Wan, 25D Tai On Street, Sai Wan Ho, Hong Kong",
    "lat": 22.283681,
    "lng": 114.223924
  },
  {
    "name": "Luk Yeung Sun Chuen",
    "address": "Market Luk Yeung Sun Chuen, No 22-26 Wai Tsuen Road, Tsuen Wan, Hong Kong",
    "lat": 22.3695266,
    "lng": 114.1210974
  },
  {
    "name": "Manson House",
    "address": "Manson House, 74-78 Nathan Road, Tsim Sha Tsui, Hong Kong",
    "lat": 22.2982961,
    "lng": 114.1724068
  },
  {
    "name": "Metropolis",
    "address": "Metropolis Mall, 6 Metropolis Drive, Hung Hom Bay, Hong Kong",
    "lat": 22.302663,
    "lng": 114.183191
  },
  {
    "name": "Olympian City 3",
    "address": "Olympian City 3 (The Hermitage), 1 Hoi Wang Road, Tai Kok Tsui, Hong Kong",
    "lat": 22.317701,
    "lng": 114.1653072
  },
  {
    "name": "On Ting Shopping Centre",
    "address": "On Ting Shopping Centre, On Ting Estate, Tuen Mun, Hong Kong",
    "lat": 22.3908295,
    "lng": 113.9725126
  },
  {
    "name": "Pacifica Mall",
    "address": "The Pacifica Mall, 9 Sham Shing Road, Lai Chi Kok, Hong Kong",
    "lat": 22.334453,
    "lng": 114.149868
  },
  {
    "name": "Pak Lee Mansion",
    "address": "Pak Lee Mansion 6-8 King's Road, Hong Kong",
    "lat": 22.2825531,
    "lng": 114.1924937
  },
  {
    "name": "Peak Galleria",
    "address": "Peak Galleria, 118 Peak Road, Hong Kong",
    "lat": 22.2703965,
    "lng": 114.1499227
  },
  {
    "name": "Sheung Shui Spot",
    "address": "No 48 Lung Sum Avenue, Sheung Shui, Hong Kong",
    "lat": 22.5030033,
    "lng": 114.1290934
  },
  {
    "name": "Tak Shing Street",
    "address": "1-5 Tak Shing Street, Jordan, Hong Kong",
    "lat": 22.303837,
    "lng": 114.172816
  },
  {
    "name": "The Golden Gate, Plover Cove Road",
    "address": "The Golden Gate, No 1 Plover Cove Road, Tai Po, Hong Kong",
    "lat": 22.4496045,
    "lng": 114.1672979
  },
  {
    "name": "Universal Commercial Building, Peking Road",
    "address": "Universal Commercial Building, 65-69 Peking Road, Tsim Sha Tsui, Hong Kong",
    "lat": 22.2961788,
    "lng": 114.171594
  },
  {
    "name": "Windsor House",
    "address": "Windsor House, 311 Gloucester Road, Causeway Bay, Hong Kong",
    "lat": 22.280413,
    "lng": 114.1865722
  },
  {
    "name": "Cathay City",
    "address": "Cathay Pacific City International Airport, 8 Scenic Road, Chek Lap Kok, Hong Kong",
    "lat": 22.298149,
    "lng": 113.934158
  },
  {
    "name": "Choi Yuen Estate",
    "address": "Choi Yuen Shopping Centre, Choi Yuen Estate, Choi Yuen Road, Sheung Shui, Hong Kong",
    "lat": 22.502573,
    "lng": 114.12518
  },
  {
    "name": "H.K. University",
    "address": "Room 204, Chong Yuet Ming Amenities Centre, The University of Hong Kong, Pok Fu Lam Road, Po Fu Lam, Hong Kong",
    "lat": 22.2826895,
    "lng": 114.1390859
  },
  {
    "name": "Celestial Heights",
    "address": "Celestrial Place, Celestial Heights, No 80 Sheung Shing Street, Hong Kong",
    "lat": 22.3186182,
    "lng": 114.1859204
  },
  {
    "name": "Citimall, Yuen Long",
    "address": "Citimall, 1 Kau Yuk Road, Yuen Long, Hong Kong",
    "lat": 22.4426028,
    "lng": 114.028452
  },
  {
    "name": "Citygate",
    "address": "Citygate, No 20 Tat Tung Road, Tung Chung, Hong Kong",
    "lat": 22.2896486,
    "lng": 113.9405428
  },
  {
    "name": "East Point City",
    "address": "East Point City, 8 Chung Wa Road, Tseung Kwan O, Hong Kong",
    "lat": 22.3165218,
    "lng": 114.264659
  },
  {
    "name": "Festival Walk",
    "address": "Festival Walk, Tat Chee Avenue, Hong Kong",
    "lat": 22.332693,
    "lng": 114.175444
  },
  {
    "name": "Hopewell Centre",
    "address": "Hopewell Centre, 183 Queen's Road East, Wan Chai, Hong Kong",
    "lat": 22.2747104,
    "lng": 114.1715708
  },
  {
    "name": "Maritime Square",
    "address": "Maritime Square, 33 Tsing King Road, Tsing Yi, Hong Kong",
    "lat": 22.3557491,
    "lng": 114.1083016
  },
  {
    "name": "Metro Plaza",
    "address": "Metroplaza, 223 Hing Fong Road, Kwai Chung, Hong Kong",
    "lat": 22.3571261,
    "lng": 114.1273968
  },
  {
    "name": "Olympian City 2",
    "address": "Olympian City 2, 18 Hoi Ting Road, West Kowloon, Hong Kong",
    "lat": 22.3166563,
    "lng": 114.1617597
  },
  {
    "name": "Stanley Plaza",
    "address": "Stanley Plaza, Ma Hang, Stanley, Hong Kong",
    "lat": 22.218258,
    "lng": 114.2134222
  },
  {
    "name": "Tuen Mun Plaza",
    "address": "Tuen Mun Town Plaza, Phase 2, 1 Tuen Shing Street, Tuen Mun, Hong Kong",
    "lat": 22.392641,
    "lng": 113.976655
  },
  {
    "name": "AXA Centre",
    "address": "AXA Centre, 151 Gloucester Road, Wan Chai, Hong Kong",
    "lat": 22.2794349,
    "lng": 114.1772835
  },
  {
    "name": "Centro, Chui Tong Road",
    "address": "No 1A Chui Tong Road, Sai Kung, Hong Kong",
    "lat": 22.3801203,
    "lng": 114.2680981
  },
  {
    "name": "Chatham Gate",
    "address": "Chatham Gate, No 388 Chatham Road North, To Kwa Wan, Hong Kong",
    "lat": 22.3111211,
    "lng": 114.1862625
  },
  {
    "name": "Coda Plaza, Garden Road",
    "address": "Coda Plaza, 51 Garden Road, Central, Hong Kong",
    "lat": 22.2763632,
    "lng": 114.1562206
  },
  {
    "name": "Discovery Bay",
    "address": "Discovery Bay Plaza, Discovery Bay, Hong Kong",
    "lat": 22.2952398,
    "lng": 114.0165583
  },
  {
    "name": "Fairview Park",
    "address": "Town Centre, Fairview Park, Yuen Long, Hong Kong",
    "lat": 22.4780591,
    "lng": 114.0443408
  },
  {
    "name": "Man Kee Mansion",
    "address": "Man Kee Mansion, Waterloo Road, Hong Kong",
    "lat": 22.3199514,
    "lng": 114.1769119
  },
  {
    "name": "Manhattan Heights",
    "address": "Manhattan Heights, Cachick Street, Sai Wan, Hong Kong",
    "lat": 22.396428,
    "lng": 114.109497
  },
  {
    "name": "Ocean Shores",
    "address": "Commercial Accomodation Phase 1, Ocean Shores, Tseung Kwan O, Hong Kong",
    "lat": 22.3119357,
    "lng": 114.2568776
  },
  {
    "name": "Park Summit",
    "address": "Park Summit, 88 Beech Street, Tai Kok Tsui, Hong Kong",
    "lat": 22.3205167,
    "lng": 114.1632339
  },
  {
    "name": "Park View",
    "address": "88 Tai Tam Reservoir Road, Repulse Bay, Hong Kong",
    "lat": 22.2569,
    "lng": 114.199174
  },
  {
    "name": "Rhine Garden",
    "address": "Rhine Garden Shopping Centre, 38 Castle Peak Road, Sham Tseng, Tsuen Wan, Hong Kong",
    "lat": 22.3676524,
    "lng": 114.0616976
  },
  {
    "name": "Royal Ascot",
    "address": "Plaza Ascot, Royal Ascot, Fo Tan, Sha Tin, Hong Kong",
    "lat": 22.400672,
    "lng": 114.199876
  },
  {
    "name": "Science Park",
    "address": "S085 and S086, Harbour View 1, No 12 Science Park East Avenue, Phase 2 Science Park, Pak Shek Kok, Tai Po, Hong Kong",
    "lat": 22.4423218,
    "lng": 114.1655064
  },
  {
    "name": "Silverstrand Mart",
    "address": "Silverstrand Mart, Clear Water Bay, Sai Kung, Hong Kong",
    "lat": 22.3208118,
    "lng": 114.2718334
  },
  {
    "name": "Tai Shing Building, Caine Road",
    "address": "Tai Shing Building, 129-133 Caine Road, Sheung Wan, Hong Kong",
    "lat": 22.2829852,
    "lng": 114.15002
  },
  {
    "name": "The Laguna Mall",
    "address": "The Laguna Mall, 8 Laguna Verde Avenue, Hung Hom, Hong Kong",
    "lat": 22.3094404,
    "lng": 114.191588
  },
  {
    "name": "Tsang Yung Mansion",
    "address": "Tsang Yung Mansion, 70 Waterloo Road, Hong Kong",
    "lat": 22.396428,
    "lng": 114.109497
  },
  {
    "name": "United Centre",
    "address": "United Centre 95 Queensway, Hong Kong",
    "lat": 22.278546,
    "lng": 114.1652079
  },
  {
    "name": "Victoria Mall, Canton Road",
    "address": "Victoria Mall, No 188 Canton Road, Tsim Sha Tsui, Hong Kong",
    "lat": 22.30264,
    "lng": 114.168837
  },
  {
    "name": "Village Road, Happy Valley",
    "address": "Fine Mansion, 32-40 Village Road, Happy Valley, Hong Kong",
    "lat": 22.2676056,
    "lng": 114.1845751
  },
  {
    "name": "Westlands Centre",
    "address": "Westlands Centre, Westlands Road, Quarry Bay, Hong Kong",
    "lat": 22.2867801,
    "lng": 114.2133691
  },
  {
    "name": "Leighton Centre",
    "address": "Leighton Centre, 77 Leighton Road, Causeway Bay, Hong Kong",
    "lat": 22.2776353,
    "lng": 114.1829035
  },
  {
    "name": "Pacific Place",
    "address": "Two Pacific Place, Admiralty, Hong Kong",
    "lat": 22.2768237,
    "lng": 114.1653472
  },
  {
    "name": "Domain",
    "address": "Domain, 38 Ko Chiu Road, Yau Tong, Hong Kong",
    "lat": 22.2940736,
    "lng": 114.2375638
  }
]