{"type":"Topology","objects":{"starbucks":{"type":"GeometryCollection","geometries":[{"type":"Point","properties":{"name":"Ngong Ping","address":"Shop 10, Ngong Ping 360, Lantau Island, , "},"coordinates":[4952,2786]},{"type":"Point","properties":{"name":"Venetian","address":"Shop 1033a Grand Canal Shoppes, Venetian, , Estrada Baia de N Senhora da Esperanca"},"coordinates":[288,0]},{"type":"Point","properties":{"name":"Taipa","address":"Rua Dos Clerigos Nos 89-95, Taipa, Macau, Contai District, "},"coordinates":[222,116]},{"type":"Point","properties":{"name":"Sands","address":"Portion of Shop 04, Ground Floor, Sands, Largo de Monte Carlo, No.203, "},"coordinates":[197,1112]},{"type":"Point","properties":{"name":"AIA Tower-","address":"Shop G01 on G/F, AIA Tower, AIA Tower, 251-301 Avenida Commercial De Macau"},"coordinates":[0,1068]},{"type":"Point","properties":{"name":"St. Paul Ruin","address":"Shop C-D, G/F, No.34, Ruin of St. Paul Street, Macau, "},"coordinates":[3,1236]},{"type":"Point","properties":{"name":"Citygate","address":"Unit G19, G/F, Citygate, Tung Chung, Citygate, Lantau"},"coordinates":[5467,3633]},{"type":"Point","properties":{"name":"HKG - Term 1 Lvl 6 Gate 44","address":"Unit No. 6Y585, Departures SW Concourse, Hong Kong International Airport, (Restricted Area), Lvl 6, HK Int'l Air"},"coordinates":[5279,4196]},{"type":"Point","properties":{"name":"Airport - North Satellite Concourse","address":"5NC154, L5, North Satellite Concourse HK, International Airport, Lantau, HK, "},"coordinates":[5332,4339]},{"type":"Point","properties":{"name":"HKG Terminal 1 Arrival Hall 5T028","address":"Unit No.5T028,Passenger Terminal1, Hong Kong International Airport, HK International Airport,Lantau"},"coordinates":[5381,4290]},{"type":"Point","properties":{"name":"HKG - Int Airport Gate 21","address":"HKIA, 6Z500, Lvl 6, Terminal 1, Airside, Hong Kong International Airport, Central Concourse, Departures Boarding"},"coordinates":[5380,4291]},{"type":"Point","properties":{"name":"HKG - Airport Departure Hall","address":"Unit M701, Level 7, Terminal 1,Hong Kong, Hong Kong International Airport, International Airport, Lantau"},"coordinates":[5408,4282]},{"type":"Point","properties":{"name":"HKIA Terminal 2 5P119","address":"Unit 5P009, Skyplaza, 1 Skyplaza Road, Hong Kong International Airport, Hong Kong International Airport, Lantau"},"coordinates":[5425,4298]},{"type":"Point","properties":{"name":"Asia World Expo","address":"Unit A at First Level, Central Concourse, Asia World-Expo, Lantau, "},"coordinates":[5506,4464]},{"type":"Point","properties":{"name":"Trend Plaza","address":"Shop no. 38, Level 3, North Wing, Trend Plaza, Tuen Mun, N.T., "},"coordinates":[5950,6315]},{"type":"Point","properties":{"name":"Tuen Mum Town Plaza 2","address":"Shop Nos. UG012 and UG015-UG017, Tuen Mum Town Plaza, on UG/Floor, Tuen Mun Town Plaza"},"coordinates":[5965,6296]},{"type":"Point","properties":{"name":"Sham Tseng","address":"Shop No. 1, G/F, Lido Avenue, 41-63 Castle Peak Road, Sham Tseng, "},"coordinates":[7098,5639]},{"type":"Point","properties":{"name":"Cyberport","address":"The Concourse, IT Street, Level 4, Cyberport Telegraph Bay, Pokfulam, Cyberport"},"coordinates":[8071,2910]},{"type":"Point","properties":{"name":"Cyberport L3","address":"Portion of Unit 316, Level 3, IT Street,, Cyberport, Cyberport"},"coordinates":[8071,2910]},{"type":"Point","properties":{"name":"South Horizon","address":"Shop G49D, G/F, West Commercial Block, M, , arina Square, Ap Lei Chau"},"coordinates":[8283,2459]},{"type":"Point","properties":{"name":"Hong Kong University Library","address":"Coffee Shop, G/F, Main Library Old Wing, The University of Hong Kong, "},"coordinates":[8171,3470]},{"type":"Point","properties":{"name":"Hong Kong University Student Union","address":"Shop 2, G/F, Composite building, The University of Hong Kong, Hong Kong University"},"coordinates":[8165,3496]},{"type":"Point","properties":{"name":"The Henry","address":"Whole of G/F Unit, The Henry,, 322-324 Des Voeux Road West, HK, "},"coordinates":[8180,3593]},{"type":"Point","properties":{"name":"Bonham Road","address":"Shop 1&2, G/F, Golden Phoenix Court, 1&2 St. Stephens Lane, "},"coordinates":[8227,3502]},{"type":"Point","properties":{"name":"Peak Galleria","address":"Shop 7, G/F Peak Galleria, 118 Peak Road, , , Peak, Hong Kong"},"coordinates":[8333,3155]},{"type":"Point","properties":{"name":"Hotel IBIS","address":"Shop 2, G/F, Hotel IBIS, 18-24 Des Voeux Rd West, Sheung Wan, Shop 2, Hotel IBIS"},"coordinates":[8298,3585]},{"type":"Point","properties":{"name":"Midland Centre","address":"Shop G61 & G62, G/F, Midland Centre, 328 Queens Road Central, "},"coordinates":[8334,3527]},{"type":"Point","properties":{"name":"Caine Road","address":"Ground Floor (incl. the cockloft), , and Lower G/F of No. 51 Caine Road"},"coordinates":[8371,3413]},{"type":"Point","properties":{"name":"254 Des Voeus Road Central","address":"G/F, 254 Des Voeux Road CentralSheung, Finance Building, Wan, Hong Kong"},"coordinates":[8361,3557]},{"type":"Point","properties":{"name":"One Island South","address":"Shop No. C, G/F, One Island South, 2 Heung Yip Road, Wong Chuk Hang, One Island South"},"coordinates":[8593,2582]},{"type":"Point","properties":{"name":"Rumsey Street","address":"Shop B on Ground Floor, Kwong Fat Hong, Building, 1 Rumsey Street, Sheung Wan, "},"coordinates":[8377,3544]},{"type":"Point","properties":{"name":"Shun Tak Centre","address":"Shop unit 226-227, 2/F, Shun Tak Centre,, , Nos.168-200 Connaught Road Central"},"coordinates":[8365,3592]},{"type":"Point","properties":{"name":"Duddell Street","address":"Shop M2, Mezzanine Floor, Baskerville, , House, 13 Duddell Street, Central"},"coordinates":[8426,3385]},{"type":"Point","properties":{"name":"Lan Kwai Fong","address":"Shop A, Upper Ground Floor, Century Sq., Century Square - Hong Kong, 1-13 D¿Aguilar Street, Central"},"coordinates":[8416,3431]},{"type":"Point","properties":{"name":"Prosperity Tower","address":"Shop on 1/F, Prosperity Tower, 39 Queens Road Central, Central, Dragonseed Building"},"coordinates":[8420,3458]},{"type":"Point","properties":{"name":"Man Yee","address":"Shop No.112, Level One, Man Yee Arcade,, , Man Yee Bldg, 68 Des Voeux Rd Central"},"coordinates":[8418,3486]},{"type":"Point","properties":{"name":"50 Connaught Road Centre","address":"Shop B, Ground Floor, , 50 Connaught Central, Central, HK"},"coordinates":[8415,3523]},{"type":"Point","properties":{"name":"Alexandra House II","address":"Shop 201, 2/F, Alexandra House, Alexandra House, 16-20 Chater Road, Central, Hong Kong"},"coordinates":[8453,3429]},{"type":"Point","properties":{"name":"MTR - Central Transfer Concourse","address":"Kiosk Nos. CEN K4-K5, Transfer Concourse, MTR Central Station, , MTR Central Station"},"coordinates":[8464,3419]},{"type":"Point","properties":{"name":"Exchange Square","address":"Shops 308-310, 3/F.,, , Exchange Square Podium, Central, HK."},"coordinates":[8446,3491]},{"type":"Point","properties":{"name":"Citibank Plaza","address":"Shop 3, Citibank Plaza,3 Garden Road, , Central, HK"},"coordinates":[8483,3352]},{"type":"Point","properties":{"name":"IFC II - 2F","address":"8 Finance Street, Central, IFC Mall, Poduim Level Two, Shop Nos 2097-2098"},"coordinates":[8443,3506]},{"type":"Point","properties":{"name":"Hong Kong Station","address":"Concession HOK 3a & b, , LAR Hong Kong Station"},"coordinates":[8450,3504]},{"type":"Point","properties":{"name":"Bank Of China Building","address":"1/F, West Hall, Bank of China Tower, Bank Of China Building, 1 Garden Road, Central, Hong Kong"},"coordinates":[8492,3373]},{"type":"Point","properties":{"name":"Jardine House - G/F Lift Lobby","address":"Shop LG12-LG14, Lower G/F.,, , Central District"},"coordinates":[8461,3468]},{"type":"Point","properties":{"name":"Pacific Place, Central","address":"Shop 131, Level 1, Pacific Place, Pacific Place, 88 Queensway, HK"},"coordinates":[8538,3331]},{"type":"Point","properties":{"name":"金鐘廊 LAB","address":"OPEN AREA, QUEENSWAY, ADMIRALTY, , "},"coordinates":[8532,3368]},{"type":"Point","properties":{"name":"Admiralty Centre","address":"Shop No.80, 1/F, Admiralty Centre, Admiralty Centre, Admiralty, Hong Kong"},"coordinates":[8545,3363]},{"type":"Point","properties":{"name":"Star Ferry","address":"Shop E, Central Pier 7 (Star Ferry), Man, , Yiu Street, Central"},"coordinates":[8482,3558]},{"type":"Point","properties":{"name":"Citic Tower","address":"Shop 301 on Third Floor of CITIC Tower,, , 1 Tim Mei Avenue, Central, Hong Kong"},"coordinates":[8570,3408]},{"type":"Point","properties":{"name":"Hopewell Centre","address":"Shop Nos. 318 ¿ 319 on 3 FL, Hopewell, Hopewell Centre, Centre, 183 Queen's Road E., Wanchai"},"coordinates":[8630,3254]},{"type":"Point","properties":{"name":"Wan Chai Tower","address":"G/F, Wanchai Tower, 12 Harbour Road, Wanchai, HK, Wan Chai Tower"},"coordinates":[8644,3401]},{"type":"Point","properties":{"name":"Maritime Square","address":"Shop Unit 166, 1/F, Maritime Square, Maritime Square, New Territories"},"coordinates":[7764,5430]},{"type":"Point","properties":{"name":"Great Eagle Centre - Ground Floor","address":"Shop No. G4-6, Ground Floor, Great Eagle, Great Eagle Centre, Centre, 23 Harbour Road, Wanchai"},"coordinates":[8677,3419]},{"type":"Point","properties":{"name":"LCX","address":"X Plus, Level 3, Ocean Terminal, Harbour, , City, Tsim Sha Tsui, Kowloon"},"coordinates":[8561,3776]},{"type":"Point","properties":{"name":"W Square - Shop B","address":"Shop A, Ground Floor, W Square, , 318 Hennessy Road, Wanchai"},"coordinates":[8722,3343]},{"type":"Point","properties":{"name":"Stanley Plaza G/F","address":"Shop G01, G/F, Stanley Plaza, 23 Carmel, Stanley Plaza, Road, Stanley"},"coordinates":[9166,1817]},{"type":"Point","properties":{"name":"Sun Hung Kai Centre - Lift Lobby","address":"Shop G12-13, G/F. Sun Hung Kai Centre, Sun Hung Kai Centre, 30 Harbour Road, Wanchai"},"coordinates":[8704,3407]},{"type":"Point","properties":{"name":"Sing Woo Road","address":"G/F, Le Cachet, 69 Sing Woo Road, Happy Valley, "},"coordinates":[8843,3072]},{"type":"Point","properties":{"name":"Times Square 9/F","address":"Kiosk H on 9/F, Times Square, , 1 Matheson Street, Causeway Bay"},"coordinates":[8771,3346]},{"type":"Point","properties":{"name":"Leighton Centre","address":"Shop L05, LG/F, Leighton Centre, , 77 Leighton Road, Causeway Bay"},"coordinates":[8797,3325]},{"type":"Point","properties":{"name":"50 Leighton Road","address":"G/F, No. 50 Leighton Road, Causeway Bay,, , Hong Kong"},"coordinates":[8801,3324]},{"type":"Point","properties":{"name":"Causeway Bay Plaza 2","address":"Shop A, 2/F, Causeway Bay Plaza 2, 463-483 Lockhard Road, Causeway Bay, "},"coordinates":[8775,3405]},{"type":"Point","properties":{"name":"Hysan Place","address":"Portion C of Jasons, Basement 2, Hysan Place,  500 Hennessy Rd, "},"coordinates":[8796,3389]},{"type":"Point","properties":{"name":"Fashion Walk","address":"Shop No. F1, 1/F, 27-47 Paterson Street,, Fashion Walk, Fashion Walk, Hong Kong"},"coordinates":[8816,3405]},{"type":"Point","properties":{"name":"Hang Lung Centre","address":"Shop S06-7, 2/F, Hang Lung Centre, 2-20, Hang Lung Centre, Paterson Street, Causeway Bay"},"coordinates":[8827,3395]},{"type":"Point","properties":{"name":"Tung Lo Wan Road","address":"Shop 3, G/F, Cathay Mansion, Cathy Mansion, 3-17 Tung Lo Wan Road, Hong Kong"},"coordinates":[8856,3369]},{"type":"Point","properties":{"name":"Windsor House","address":"Shop 406, 4/F, Windsor House, 311 Gloucester Road, Causeway Bay, "},"coordinates":[8834,3401]},{"type":"Point","properties":{"name":"WTC More","address":"Shop No. G006-010, Ground Floor, WTC, World Trade Center More, 280 Gloucester Road, Causeway Bay"},"coordinates":[8799,3443]},{"type":"Point","properties":{"name":"Gloucester Road","address":"Shop 1 on Ground Floor, Fortis Bank, , Tower, 77-79 Gloucester Road, Wanchai"},"coordinates":[8904,3358]},{"type":"Point","properties":{"name":"New Jade Shopping Centre","address":"Shop No.112B, Level 1, New Jade Shopping, Arcade, 233 Chai Wan Road, Chai Wan, New Jade Shopping Centre"},"coordinates":[9524,2983]},{"type":"Point","properties":{"name":"Tin Hau","address":"Shop D, G/F, Hung On Building, No. 2-2A King's Road, Tin Hau, "},"coordinates":[8913,3454]},{"type":"Point","properties":{"name":"Nethersole Eastern Hospital","address":"Lobby, 1/F, Eastern Hospital, 3 Lok Man, Road, Chai Wan, "},"coordinates":[9520,3149]},{"type":"Point","properties":{"name":"Island Resort","address":"Shop 20B, G/F, Island Resort Mall, 28 Siu Sai Wan Road, Siu Sai Wan, "},"coordinates":[9720,3014]},{"type":"Point","properties":{"name":"Kornhill Plaza","address":"Shop G5, G/F, Kornhill Plaza, 1 Kornhill, , Road, Quarry Bay,  Hong Kong"},"coordinates":[9235,3514]},{"type":"Point","properties":{"name":"Cityplaza","address":"Shop 005-006, G/F, Cityplaza, 18 Taikoo Shing Road, "},"coordinates":[9256,3539]},{"type":"Point","properties":{"name":"Taikoo Shing","address":"Shop No. G516, Kin On Mansion, , Taikoo Shing, Island East, Hong Kong"},"coordinates":[9210,3567]},{"type":"Point","properties":{"name":"Tong Chong Street","address":"14A G/F Hoi Kwong Court, Hoi Kwong Court, 13-15 Hoi Kwong Street, Quarry Bay"},"coordinates":[9164,3600]},{"type":"Point","properties":{"name":"Kerry Centre","address":"Unit 1, First Floor, Kerry Centre, Kerry Centre, 683 King's Road, Quarry Bay"},"coordinates":[9152,3663]},{"type":"Point","properties":{"name":"Fortress Hill","address":"Shop 3A. Ground Floor, Multifield Bldg, 147-151 King's Road, Fortress Hill, Multifield Building"},"coordinates":[8926,3604]},{"type":"Point","properties":{"name":"AIA Tower","address":"Shop Nos. 7 & 8, G/F, AIA Tower, No. 183 Electric Road, North Point, "},"coordinates":[8916,3606]},{"type":"Point","properties":{"name":"AIA Hong Kong Tower","address":"Shop No.1A, G/F, AIA Hong Kong Tower, 734 Kings Road, Quarry Bay, Stanhope House"},"coordinates":[9126,3679]},{"type":"Point","properties":{"name":"Airport - Gate 16","address":"Unit No. 6N505 at Terminal 1, Hong Kong International Airport, Lantau, "},"coordinates":[8781,3572]},{"type":"Point","properties":{"name":"Popcorn Mall","address":"F45, 1/F, PopCorn, 9 Tong Yin St, Tseung, Kwan O, NT, "},"coordinates":[9833,4106]},{"type":"Point","properties":{"name":"APM","address":"Shop No. 15, Level 2, APM, Millennium Ci, , ty 5, 418 Kwun Tong Road, Kowloon"},"coordinates":[9363,4229]},{"type":"Point","properties":{"name":"Millennium City 1","address":"Shop 3A & 3B, G/F, Tower 1, 388 Kwun Ton, , g Rd.,Millennium City 1,Kwun Tong"},"coordinates":[9313,4263]},{"type":"Point","properties":{"name":"Avenue of Stars","address":"Tsim Sha Tsui Promenade Avenue of Stars, Tsim Sha Tsui East Promenade, "},"coordinates":[8647,3734]},{"type":"Point","properties":{"name":"Whampoa Garden - Shop 5 Site 4","address":"Shop No.5, G/F, Site 4, Whampoa Garden,, , Hunghom, Kowloon"},"coordinates":[8865,4005]},{"type":"Point","properties":{"name":"Empire Centre","address":"G39, G40-G41 on G/F, Empire Centre, 68 Mody Road, Tsim Sha Tsui, "},"coordinates":[8723,3864]},{"type":"Point","properties":{"name":"Telford Plaza I","address":"Shop Unit G1A, Atrium A, Telford Plaza I, , Kowloon Bay, Kowloon, "},"coordinates":[9202,4496]},{"type":"Point","properties":{"name":"One Kowloon - G/F Lift Lobby","address":"Lobby, Ground Floor, One Kowloon, 1 Wang, One Kowloon, Yuen Street, Kowloon Bay, Hong Kong"},"coordinates":[9157,4439]},{"type":"Point","properties":{"name":"MegaBox L6","address":"Unit 4 on Level 6 of MegaBox, Enterprise, Enterprise Square Five, Square 5, 38 Wang Chiu Road, Kowloon Bay"},"coordinates":[9135,4417]},{"type":"Point","properties":{"name":"Hung Hom KCRC","address":"Shop No.1, Mezzanine Level,, Hung Hom KCRC Station, Unpaid Concourse of Hung Hom Station"},"coordinates":[8774,3971]},{"type":"Point","properties":{"name":"Harbour Crystal Centre","address":"Shop 53-55, G/F, Harbour Crystal Centre, 100 Granville Road, Tsim Sha Tsui, G/F Harbour Crystal Center"},"coordinates":[8722,3928]},{"type":"Point","properties":{"name":"Tsuen Wan Plaza","address":"Open Café A on Level 2, Tsuen Wan Plaza, New Territories, "},"coordinates":[7808,5728]},{"type":"Point","properties":{"name":"Element","address":"1 Austin Road West, Shop 1021A, Union Square"},"coordinates":[8493,4009]},{"type":"Point","properties":{"name":"E-Max","address":"Shop 48, G/F,HK Int'l Trade & Exhibit, , 1 Trademart Drive, Kowloon Bay"},"coordinates":[9070,4521]},{"type":"Point","properties":{"name":"I-Square","address":"Shop LB02 & portion area, Lobby Floor, I Square, iSQUARE, 35-79 Nathan Rd, Tsim Sha Tsui"},"coordinates":[8637,3820]},{"type":"Point","properties":{"name":"Cultural Centre","address":"G/F, Auditoria Building, , HK Cultural Centre, Tsim Sha Tsui"},"coordinates":[8612,3756]},{"type":"Point","properties":{"name":"Yuen Long Plaza","address":"Open Space, OS3, 2/F, Yuen Long Plaza,, Yuen Long, NT, Yuen Long Plaza"},"coordinates":[6890,7748]},{"type":"Point","properties":{"name":"Citywalk","address":"Shop Unit UG06, Upper Ground Floor, City, , walk, 1 Yeung Uk Road, Tsuen Wan"},"coordinates":[7843,5700]},{"type":"Point","properties":{"name":"Discovery Park","address":"Shop 47-48 on Level 1 in Discovery Park,, Discovery Park, 398 Castle Peak Road, Tsuen Wan"},"coordinates":[7824,5863]},{"type":"Point","properties":{"name":"Metroplaza","address":"Shop 275-276, Level 2, Metroplaza, , 223 Hing Fong Road, Kwai Fong, NT."},"coordinates":[8021,5377]},{"type":"Point","properties":{"name":"Luk Yeung Galleria","address":"Shop S10-12, Luk Yeung Galleria, 2/F, Tsuen Wan, "},"coordinates":[7914,5790]},{"type":"Point","properties":{"name":"Star House","address":"Shop No. B5, Basement Floor, Star House, Star House, Plaza, 3 Salisbury Rd, Tsim Sha Tsui"},"coordinates":[8597,3768]},{"type":"Point","properties":{"name":"Harbour City 3/F","address":"Shop 3327, Level 3, Gateway Arcade, , Harbour City, Kowloon, Hong Kong"},"coordinates":[8583,3843]},{"type":"Point","properties":{"name":"Ocean Centre 4/F","address":"Kiosk 406K, Level 4, Ocean Centre, Tsim Sha Tsui, "},"coordinates":[8597,3798]},{"type":"Point","properties":{"name":"Sai Kung - Shop A2-A5","address":"Shop A2, Ground Floor, 18-32 Chan Man St, Sai Kung N. T., reet, Sai Kung, New Territories"},"coordinates":[9999,6029]},{"type":"Point","properties":{"name":"Mikiki","address":"Shop No. G01, Ground Floor, Mikiki 638, Mikiki Mall, Prince Edward Road East, Kowloon"},"coordinates":[8974,4770]},{"type":"Point","properties":{"name":"Plaza Hollywood","address":"Level 2, Plaza Hollywood, Diamond Hill,, , Kowloon"},"coordinates":[9041,4955]},{"type":"Point","properties":{"name":"深圳华侨城Loft店","address":"南山区, , 华侨城东部工业区E5栋101A"},"coordinates":[6192,9999]},{"type":"Point","properties":{"name":"Liberte Place","address":"Shop No.101, 1st Floor, Liberte Place, 8, 33 Lai Chi Kok Road, Kowloon, Liberte Place"},"coordinates":[8318,4799]},{"type":"Point","properties":{"name":"Cheung Sha Wan Plaza","address":"G/F Cheung Sha Wan Plaza, 833 Cheung Sha, , Wan Road, Cheung Sha Wan, Kowloon"},"coordinates":[8327,4865]},{"type":"Point","properties":{"name":"China Hong Kong City","address":"Shop 17A, 1/F, China Hong Kong City, 33, , Canton Road, Tsimshatsui, Kowloon"},"coordinates":[8578,3917]},{"type":"Point","properties":{"name":"Sun Arcade","address":"Shop B06A, Basement 1 Floor, The Sun, Sun Arcade, Arcade, 28 Canton Road, Tsim Sha Tsui"},"coordinates":[8601,3826]},{"type":"Point","properties":{"name":"Olympian City 2","address":"Shop No. G78 on Ground Floor, , Olympian City 2, 18 Hoi Ting Rd, Kowloon"},"coordinates":[8491,4337]},{"type":"Point","properties":{"name":"Knutsford Steps","address":"No. 3, Knutsford Steps, 1/F, 1 Kimberley, Miramar Shopping Centre, Road, Tsim Sha Tsui, Kowloon"},"coordinates":[8647,3930]},{"type":"Point","properties":{"name":"Wong Tai Sin Plaza","address":"Shop No. G3B, Ground Floor, Wong Tai Sin, , Shopping Centre, Wong Tai Sin, Kowloon"},"coordinates":[8945,4975]},{"type":"Point","properties":{"name":"Lok Fu","address":"U215, UG2/F, Lok Fu Plaza, 198 Junction Road, Kowloon, Hong Kong, Lok Fu Plaza"},"coordinates":[8847,4871]},{"type":"Point","properties":{"name":"Hong Kong Baptist University","address":"1/F, JCACC, Baptist University Road, HKBU, Jocky Club Academic Community Centre"},"coordinates":[8784,4850]},{"type":"Point","properties":{"name":"Langham Place","address":"Shop No. 2, Level 4A, Langham Place, , 8 Argyle Street, Mongkok, Kowloon"},"coordinates":[8590,4373]},{"type":"Point","properties":{"name":"Pioneer Centre","address":"Kiosk A & B, 2/F, Pioneer Centre, Pioneer Centre, 750 Nathan Road, Mongkok, Kowloon"},"coordinates":[8595,4488]},{"type":"Point","properties":{"name":"Gala Centre","address":"Shops G01-02, G/F, Gala Shopping Mall,, Gala Shopping Mall, 56 Dundas Street, Mongkok, Kowloon"},"coordinates":[8621,4303]},{"type":"Point","properties":{"name":"Sai Yee Street","address":"1/F & 2/F, Wai Kee House, 91 Sai Yee Street, Mongkok, Kowloon, Wai Yee House"},"coordinates":[8629,4410]},{"type":"Point","properties":{"name":"Nathan Hotel","address":"Shop A & Rear Expansion, G/F, Nathan Hotel, Nathan Hotel, No. 378 Nathan Rd, Kowloon"},"coordinates":[8631,4105]},{"type":"Point","properties":{"name":"3 Jordan Road","address":"Shop A & B on the Ground Floor, 3 Jordan Road, "},"coordinates":[8643,4063]},{"type":"Point","properties":{"name":"One Victory","address":"1/F, One Victory,1-3 Victory Avenue, Ho Man Tin, Kowloon, "},"coordinates":[8672,4384]},{"type":"Point","properties":{"name":"Granville Road","address":"2-6 Granville Rd, Abion Centre, TST, "},"coordinates":[8710,4492]},{"type":"Point","properties":{"name":"Austin Road","address":"Shop on G/F., 102 Austin Road, Tsimshats, , ui, Kowloon, Hong Kong"},"coordinates":[8639,3987]},{"type":"Point","properties":{"name":"Festival Walk AMC","address":"Unit 20A on Level UG/F, Festival Walk, Festival Walk, 80 Tat Chee Avenue, Kowloon Ton"},"coordinates":[8664,4869]},{"type":"Point","properties":{"name":"City One","address":"Shop Nos. G33A & G33B, G/F, Fortune City One, No.1, Ngan Shing St., "},"coordinates":[9067,6132]},{"type":"Point","properties":{"name":"Sunshine City Plaza","address":"Open Space next to Shop 2115-6, L2, Sun Shine City Plaza, Ma On Shan, Sunshine City Plaza"},"coordinates":[9455,7113]},{"type":"Point","properties":{"name":"NTP 3 - 1st Floor Open Area","address":"Counter No. 2087, Lvl 2, New Town Plaza, New Town Plaza Phase 3, Phase III, 2-8 Shatin Centre Street"},"coordinates":[8849,5971]},{"type":"Point","properties":{"name":"Fo Tan","address":"Shops 12A & 12B on G/F Shatin Galleria, 18-24 Shan Mei Street, Fo Tan, Shatin Galleria"},"coordinates":[8928,6417]},{"type":"Point","properties":{"name":"KCRC - Tai Po - Shop B","address":"MTR Kiosk No. TAP8 at Tai Po Market MTR, Station, "},"coordinates":[8615,7634]},{"type":"Point","properties":{"name":"Tai Po Mega Mall","address":"Shop 539 - 541, L1, Zone C, Tai Po Mega Mall, Tai Po Mega Mall, Tai Po, N.T."},"coordinates":[8621,7822]}]}},"arcs":[],"transform":{"scale":[0.00007314331433143264,0.000038767576757675924],"translate":[113.54039,22.14859]}}