{"type":"Topology","objects":{"watsons":{"type":"GeometryCollection","geometries":[{"type":"Point","properties":{"name":"375 King’s Road","address":"G/F, 375 King’s Road, North Point, Hong Kong"},"coordinates":[7763,2469]},{"type":"Point","properties":{"name":"Aberdeen Centre","address":"Shop 6C, Hoi Chu Court, Aberdeen Centre, Aberdeen, Hong Kong"},"coordinates":[6448,1216]},{"type":"Point","properties":{"name":"Admiralty Centre","address":"1/F Tower 1, Shop 23-28, 81-83 Admiralty Centre, Hong Kong"},"coordinates":[6767,2129]},{"type":"Point","properties":{"name":"Amoy Plaza","address":"Shop Nos. F58-60, 1/F, Phase I, Amoy Plaza, 77 Ngau Tau Kok Road , Kowloon"},"coordinates":[8298,3476]},{"type":"Point","properties":{"name":"Austin Road","address":"Shop on G/F, No.114 Austin Road, Kowloon, Hong Kong"},"coordinates":[6999,2831]},{"type":"Point","properties":{"name":"Belcher’s Street","address":"Shop 1 & 2 on Lower Ground Floor, Belcher’s Hill, 42-44 Belcher’s Street,Kennedy Town, Hong Kong"},"coordinates":[5666,2226]},{"type":"Point","properties":{"name":"Belvedere Garden","address":"Shop 29, G/F, Belvedere Square, Belvedere Garden Phase III, 625 Castle Peak Road, Tsuen Wan, NT"},"coordinates":[4860,4872]},{"type":"Point","properties":{"name":"Bo Shek Mansion","address":"Shop G18, G/F., Plaza 328, Bo Shek Mansion, No. 328 Sha Tsui Road, Tsuen Wan, NT"},"coordinates":[5336,4754]},{"type":"Point","properties":{"name":"Butterfly Estate","address":"Shop Nos. L201, L206 and L207, Level 2, Butterfly Shopping Centre, Butterfly Estate, Tuen Mun, N.T."},"coordinates":[672,4944]},{"type":"Point","properties":{"name":"Caine Road","address":"Shop B- D & Store 2, G/F, 99 Caine Road,Hong Kong"},"coordinates":[6342,2221]},{"type":"Point","properties":{"name":"Cameron Road","address":"Shop 5, G/F & Basement, Hang Sang Building, 18 Carnarvon Road, Tsimshatsui"},"coordinates":[7016,2706]},{"type":"Point","properties":{"name":"Canal Road West","address":"G/F, No. 23 Canal Road West, Wan Chai, Hong Kong"},"coordinates":[7247,2067]},{"type":"Point","properties":{"name":"Castle Peak Road","address":"G/F, Tat Ming Building, No. 244 Castle Peak Road, Kowloon"},"coordinates":[6547,3836]},{"type":"Point","properties":{"name":"Castle Peak Road (Yuen Long)","address":"G/F, No.205 Castle Peak Road, Yuen Long, NT"},"coordinates":[2564,7003]},{"type":"Point","properties":{"name":"Causeway Bay Plaza 1","address":"Unit 101,102 & 103 on 1st Floor, Causeway Bay Plaza 1, No. 489 Hennessy Road, Hong Kong"},"coordinates":[7302,2157]},{"type":"Point","properties":{"name":"Centre Street","address":"Ground Floor, No.13-15 Centre Street, Sai Ying Pun, Hong Kong"},"coordinates":[6082,2364]},{"type":"Point","properties":{"name":"Chelsea Heights","address":"Shop 101, 1/F., Chelsea Heights, Tuen Mun, New Territories"},"coordinates":[994,5706]},{"type":"Point","properties":{"name":"Cheung Chau","address":"G/F, 1/F, 2/F, 3/F, & roof, 85 Praya Road, Cheung Chau, Hong Kong"},"coordinates":[2647,0]},{"type":"Point","properties":{"name":"Cheung Fat Estate","address":"Shop No. 209, 2/F., Cheung Fat Shopping Centre, Tsing Yi, Hong Kong"},"coordinates":[4893,4580]},{"type":"Point","properties":{"name":"Chi Fu","address":"Shop Nos. 403 & 405A, 4/F, Chi Fu Landmark"},"coordinates":[5971,1496]},{"type":"Point","properties":{"name":"Chi Lok Fa Yuen","address":"Shop No. 68 on G/F, Chi Lok Fa Yuen, Tuen Mun, New Territories"},"coordinates":[1171,5312]},{"type":"Point","properties":{"name":"China Hong Kong City","address":"UG/F 43D, Floor UG, China Hong Kong City (UG & PL), 33 Canton Road, Tsim Sha Tsui, Kowloon"},"coordinates":[6851,2751]},{"type":"Point","properties":{"name":"Ching Long Shopping Centre","address":"Shop B021, G/F, Ching Long Shopping Centre"},"coordinates":[7939,3647]},{"type":"Point","properties":{"name":"Choi Tak Shopping Centre","address":"Shop 513, 5/F, Choi Tak Shopping Centre, Ngau Tau Kok, Kowloon"},"coordinates":[8226,3618]},{"type":"Point","properties":{"name":"Choi Wan Shopping Centre","address":"Shop No. B203, 2/F, Choi Wan Shopping Centre Phase 3, Ngau Chi Wan, Kowloon"},"coordinates":[8260,3736]},{"type":"Point","properties":{"name":"Choi Yuen Plaza","address":"Shop No. R42 & R43, 3/F, Choi Yuen Plaza, Sheung Shui, N.T."},"coordinates":[5593,8661]},{"type":"Point","properties":{"name":"Chuk Yuen","address":"Shop No. S231, Chuk Yuen Shopping Centre, Wong Tai Sin, Kowloon"},"coordinates":[7623,4061]},{"type":"Point","properties":{"name":"Chung Fu","address":"Shop No. 19, Chung Fu Shopping Centre, Tin Shui Wai, New Territories"},"coordinates":[1714,7501]},{"type":"Point","properties":{"name":"Chung On","address":"Shop 4A, 4B & 19, G/F, Chung On Shopping Centre, Ma On Shan, NT"},"coordinates":[8625,6332]},{"type":"Point","properties":{"name":"Chung On Street","address":"Shop on G/F, 65 & 67 Chung On Street, Tsuen Wan, New Territories"},"coordinates":[5297,4783]},{"type":"Point","properties":{"name":"Ciytwalk Phase 2","address":"Shop G66-68, G/F, Citywalk2, 18 Yeung Uk Road, Tsuen Wan, New Territories"},"coordinates":[5242,4746]},{"type":"Point","properties":{"name":"CLI Building","address":"Shop G1, G/F, CLI Building, 313-317 Hennessy Road, Wanchai, Hong Kong"},"coordinates":[7162,2107]},{"type":"Point","properties":{"name":"Crocodile Centre","address":"Shop A, G/F, Crocodile Centre, 79 Hoi Yuen Road, Kwun Tong, Kowloon"},"coordinates":[8596,3082]},{"type":"Point","properties":{"name":"Dawning Views Plaza","address":"Shop Nos G12B-G13, Ground Floor, Dawning Views Plaza, 23 Yat Ming Road, Fanling, N.T."},"coordinates":[6152,8271]},{"type":"Point","properties":{"name":"Diamond Hill","address":"Shop No. 228, L2, Plaza Hollywood, Diamond Hill, Kowloon"},"coordinates":[7890,3939]},{"type":"Point","properties":{"name":"Discovery Bay","address":"Shop 135,1/F,Block C, D B Plaza, Discovery Bay, Lantau Island, Hong Kong"},"coordinates":[2278,2593]},{"type":"Point","properties":{"name":"Discovery Park Shopping Centre","address":"Shops 2058-61, Level 2 of Discovery Park Shopping Centre, Tsuen Wan, N.T."},"coordinates":[5149,4986]},{"type":"Point","properties":{"name":"Domain","address":"Shop No. 220, 2/F, Domain, Yau Tong, Kowloon"},"coordinates":[8975,2642]},{"type":"Point","properties":{"name":"Dragon Centre","address":"Unit 205 & part of unit 206, 2/F, Dragon Centre,37KYen Chow Street,Sham Shui Po,Kowloon"},"coordinates":[6605,3655]},{"type":"Point","properties":{"name":"East Point City","address":"Shop No. 261 on Level 2 of East Point City, 8 Chung Wa Road, Tseung Kwan O, Kowloon"},"coordinates":[9795,3222]},{"type":"Point","properties":{"name":"Eightland Garden","address":"Shop No. 8, G/F Eightland Gardens, 2 On Chee Road, Tai Po, N.T."},"coordinates":[6805,7244]},{"type":"Point","properties":{"name":"Eldex Building","address":"Shop B, G/F, Eldex Ind Building, 21 Ma Tau Wai Road, Hunghom, Kowloon"},"coordinates":[7450,2988]},{"type":"Point","properties":{"name":"Fa Yuen Street","address":"Shop 6, G/F, Hung Hay Building, No. 1 Fa Yuen Street, Kowloon"},"coordinates":[6963,3208]},{"type":"Point","properties":{"name":"Fanling Town Centre","address":"Shop No. 28B, Level 2, Fanling Town Centre, Fanling, New Territories"},"coordinates":[5981,8412]},{"type":"Point","properties":{"name":"Festival Walk","address":"Portion of Unit MTR-01, Level MTR, Festival Walk, 80 Tat Chee Avenue, Kowloon"},"coordinates":[7053,3835]},{"type":"Point","properties":{"name":"Flora Plaza","address":"Shop Nos. 11-12 and 35-38 on the Ground Floor of Flora Plaza, Fanling, N.T."},"coordinates":[6044,8217]},{"type":"Point","properties":{"name":"Fortune City One Plus","address":"Shop G24B, G25 & G26 Of Fortune City One, Shatin, New Territories"},"coordinates":[7942,5288]},{"type":"Point","properties":{"name":"Fu Shin Estate","address":"Shop 123 on 1/F, Fu Shin Shopping Centre, Fu Shin Estate, Tai Po, N.T."},"coordinates":[7057,7286]},{"type":"Point","properties":{"name":"Fuk Lo Tsun Road","address":"G/F, No. 13 Fuk Lo Tsun Road, Kowloon City, Kowloon"},"coordinates":[7444,3559]},{"type":"Point","properties":{"name":"Fung House","address":"Ground Floor Shop, Fung House, 19-20 Connaught Road Central, Hong Kong"},"coordinates":[6537,2239]},{"type":"Point","properties":{"name":"Garden Rivera","address":"Shop 19-20 Level 1 Garden Rivera 20-30 Tai Chung Kiu Road Shatin,New Territories"},"coordinates":[7678,5120]},{"type":"Point","properties":{"name":"Golden Era Plaza","address":"Shop 1AB, G/F, Golden Era Plaza, 39 Sai Yee Street, Mongkok, Kowloon"},"coordinates":[6967,3281]},{"type":"Point","properties":{"name":"Grand Century Place","address":"Shop No.102A, Floor L1, Grand Century Place, Mongkok, Kowloon"},"coordinates":[6972,3424]},{"type":"Point","properties":{"name":"Hankow Road","address":"Portion of Ground Floor of Kaiseng Commercial Centre, 4-6 Hankow Road, Tsimshatsui, Kowloon"},"coordinates":[6960,2619]},{"type":"Point","properties":{"name":"Happy Valley","address":"Shop 19 on G/F, Hang Fung Mansion, 17-19 Wong Nai Chung Road, Happy Valley, HK"},"coordinates":[7345,1841]},{"type":"Point","properties":{"name":"Harbour City","address":"Shop 3302, Level 3, Gateway Arcade, Harbour City, Tsimshatsui, Kowloon"},"coordinates":[6863,2714]},{"type":"Point","properties":{"name":"Hau Tak","address":"Shop Nos. L189-L190, 1/F, Hau Tak Shopping Centre (West Wing), Tseung Kwan O, Kowloon"},"coordinates":[9826,3247]},{"type":"Point","properties":{"name":"Hennessy Road","address":"G/F & M/F,205-207 Hennessy Road,Wanchai,Hong Kong"},"coordinates":[7063,2089]},{"type":"Point","properties":{"name":"Heung Yip Road","address":"Shop G08, G/F, One Island South, 2 Heung Yip Road, Wong Chuk Hang"},"coordinates":[6881,1223]},{"type":"Point","properties":{"name":"Hilton Tower","address":"Portion of Shop C, G/F, Hilton Tower, 96 Granville Road, Tsimshatsui, Kowloon"},"coordinates":[7131,2725]},{"type":"Point","properties":{"name":"Hing Wah Shopping Centre","address":"Shop No. 119-120, 1/F Hing Wah Plaza, Chai Wan, Hong Kong"},"coordinates":[8904,1631]},{"type":"Point","properties":{"name":"HK Gold Coast","address":"Shop No 9-10, G/F., Marina Magic Shopping Mall, HK Gold Coast, 1 Castle Peak Road, Tsuen Wan, NT"},"coordinates":[1558,4854]},{"type":"Point","properties":{"name":"Hoi Lai Estate","address":"Portion of Shop 106, 1st Floor, Hoi Lai Shopping Centre, Hoi Lai Estate, Shamshuipo, Kowloon"},"coordinates":[6214,3698]},{"type":"Point","properties":{"name":"Homantin Plaza","address":"Shop No. 7-8, G/F, Homantin Plaza, 80 Fat Kwong Street, Ho Man Tin, Kowloon"},"coordinates":[7270,3225]},{"type":"Point","properties":{"name":"Hong Kong Station","address":"MTR Hong Kong Station, Central, Hong Kong Concession No#HOK51, In-Town Check-in Concourse, H.K."},"coordinates":[6541,2293]},{"type":"Point","properties":{"name":"Hopewell Centre","address":"Shop 301-306, Hopewell Centre, 183 Queen's Road East, Wanchai, Hong Kong"},"coordinates":[6963,1991]},{"type":"Point","properties":{"name":"Hung Hom Square","address":"Part of Shop 13-14, Shop 61-67, 1/F, Hunghom Commercial Centre, Kowloon"},"coordinates":[7453,3028]},{"type":"Point","properties":{"name":"Hunghom Bay","address":"Shop 10, G/F., Hunghom Bay Centre, 92-112 Baker Street, Hunghom, Kowloon"},"coordinates":[7388,2910]},{"type":"Point","properties":{"name":"Infinity Eight","address":"Shop B206, Basement 2 Floor, Infinity Eight, 8 Clear Water Bay Road, Choi Hung, Kowloon"},"coordinates":[8117,3741]},{"type":"Point","properties":{"name":"Island Place","address":"Shop 111, 1/F, Island Place, North Point, Hong Kong"},"coordinates":[7898,2481]},{"type":"Point","properties":{"name":"Java Road","address":"Shop 3, G/F, The Java, No. 98 Java Road, North Point, Hong Kong"},"coordinates":[7810,2506]},{"type":"Point","properties":{"name":"Johnston Road","address":"Shop A, G/F., Johnston Court, 28 - 34 Johnston Road, Wanchai, Hong Kong"},"coordinates":[6930,2054]},{"type":"Point","properties":{"name":"Jordan","address":"Shop No. A and B on G/F and A portion of the Roof, Cumberland House, 38 Pilkem Street, Kowloon"},"coordinates":[6959,2872]},{"type":"Point","properties":{"name":"Jubilant Place","address":"Shop 28-30 & 46-49, G/F, Jubilant Place, 33 Ma Tau Kok Road, Tokwawan, Kowloon"},"coordinates":[7501,3386]},{"type":"Point","properties":{"name":"K11","address":"Shop No. B108 on Basement 1, K11, Tsimshatsui, Kowloon"},"coordinates":[7029,2659]},{"type":"Point","properties":{"name":"Kai Man Path","address":"Shop 9, G/F., Mei Hang Building, 15-45 Kai Man Path, Tuen Mun, New Territories"},"coordinates":[1022,5576]},{"type":"Point","properties":{"name":"Kai Tin","address":"Shop 101, 1/F, Kai Tin Shopping Centre, Lam Tin, Kowloon"},"coordinates":[8864,2991]},{"type":"Point","properties":{"name":"Kin Sang Estate","address":"Shop Nos. 109 & 110, G/F, Kin Sang Shopping Centre, Kin Sang Estate, Tuen Mun."},"coordinates":[848,5897]},{"type":"Point","properties":{"name":"Kingswood Ginza","address":"Shop No.139-141, 1/F, Phase 1, Kingswood Ginza, Kingswood Villas, Tin Shui Wai, New Territories"},"coordinates":[1901,7378]},{"type":"Point","properties":{"name":"Kiu Kiang Street","address":"Shop Nos. 2-5, G/F, Celebrity Comm. Centre, 64 Castle Peak Road, Sham Shui Po, Kowloon"},"coordinates":[6671,3750]},{"type":"Point","properties":{"name":"Kornhill Plaza","address":"Portion of Mezzanine Floor, Kornhill Plaza (North), 1-2 Kornhill Road, Quarry Bay."},"coordinates":[8310,2291]},{"type":"Point","properties":{"name":"Kowloon City Plaza","address":"Shop No. LG13-15, Lower Ground Floor, Kowloon City Plaza, 128 Carpenter Road, Kowloon City, Kowloon"},"coordinates":[7473,3652]},{"type":"Point","properties":{"name":"Kwai Shing Est.","address":"Shop No. 103A, Kwai Shing East Shopping Centre, Kwai Shing East Estate, New Territories"},"coordinates":[5624,4646]},{"type":"Point","properties":{"name":"Kwong Fuk Lane","address":"Shop 2 on G/F & Cockloft, Fuk Cheong Building, Nos. 12-14 Kwong Fuk Lane, Nos. 5, 7 & 19 Kwong Fuk Square, Tai Po, N.T."},"coordinates":[6835,7103]},{"type":"Point","properties":{"name":"Kwong Sang Hong","address":"Shop A2, G/F, Kwong Sang Hong Building Block A, 298 Hennessy Road, Wan Chai"},"coordinates":[7136,2088]},{"type":"Point","properties":{"name":"Laguna City","address":"Shop 60-63, Level 1, Laguna City Plaza, Kowloon"},"coordinates":[8667,2944]},{"type":"Point","properties":{"name":"Lai Chi Kok","address":"Ground Floor including Cockloft, 308 Lai Chi Kok Road, Shamshuipo, Kowloon"},"coordinates":[6647,3572]},{"type":"Point","properties":{"name":"Lai Fong Street","address":"Shop 8, 9 & 10 on G/F, Foon Tak Building, No. 1 Lai Fong Street, Nos. 38-44 Shing Fong Street, Kwai Chung, N.T."},"coordinates":[5614,4487]},{"type":"Point","properties":{"name":"Lai Kok Estate","address":"Shop 1-2 on Ground Flor, Lai Kok Shopping Centre, Lai Kok Estate, Shamshuipo, Kowloon, Hong Kong"},"coordinates":[6522,3726]},{"type":"Point","properties":{"name":"Lai Wan Building","address":"Shop F on G/F & Cockloft, Lai Wan Building, Nos.33, 37-55 Shau Kei Wan Road, No.1 Tai Hong Street,H.K."},"coordinates":[8463,2243]},{"type":"Point","properties":{"name":"Langham Place","address":"Shop 35b in Basement 2, Langham Place, 8 Argyle Street,Mongkok, Kowloon"},"coordinates":[6878,3274]},{"type":"Point","properties":{"name":"Lei Muk Shue","address":"Shop 117, Lei Muk Shue Shopping Centre, Lei Muk Shue Estate, Tsuen Wan, N.T."},"coordinates":[5902,5040]},{"type":"Point","properties":{"name":"Lei Tung Estate","address":"Shop 205,1/F,Commercial Centre,Lei Tung Estate,Hong Kong"},"coordinates":[6487,1000]},{"type":"Point","properties":{"name":"Lei Yue Mun","address":"Shop No. 124A, 1/F, Lei Yue Mun Plaza, Kowloon"},"coordinates":[9018,2635]},{"type":"Point","properties":{"name":"Leung King","address":"Shop Nos. L307 and L308, Level 3, Leung King Shopping Centre, Leung King Estate, No. 31 Tin King Road, Tuen Mun, N. T"},"coordinates":[674,5881]},{"type":"Point","properties":{"name":"Lido Avenue","address":"Shop Nos. 7 & 8 on Ground Floor of Lido Avenue, No. 41 – 63 Castle Peak Road, Sham Tseng, N.T."},"coordinates":[3563,4700]},{"type":"Point","properties":{"name":"Locwood Court","address":"Shop Nos. 3 & 4 on 1/F, The Mall of Commercial Development, Locwood Court, Kingswood Villas, 1 Tin Wu Road, Tin Shui Wai"},"coordinates":[1783,7229]},{"type":"Point","properties":{"name":"Lok Fu","address":"Shop Nos. L106-108, Upper Ground Floor 1, Lok Fu Plaza, Wang Tau Hom, Kowloon"},"coordinates":[7441,3872]},{"type":"Point","properties":{"name":"Lok Fu Shopping Centre","address":"Shop 2117, 2/F, Lok Fu Shopping Centre, Lok Fu, Kowloon"},"coordinates":[7414,3873]},{"type":"Point","properties":{"name":"Lok Ma Chau MTR Station(Shop no. 1)","address":"MTR Station Shop LMC 115 and Storeroom LMC STR 11, Lok Ma Chau Station, New Territories"},"coordinates":[3788,9064]},{"type":"Point","properties":{"name":"Lok Ma Chau MTR Station(Shop no. 2)","address":"MTR Station, Shop LMC 208 and Storeroom LMC STR 12,Lok Ma Chau Station"},"coordinates":[3759,9066]},{"type":"Point","properties":{"name":"Lok Wah","address":"Shop 314, 3/F., Lok Wah (North) Shopping Centre, Lok Wah (North) Estate, Ngau Tau Kok, Kowloon"},"coordinates":[8425,3381]},{"type":"Point","properties":{"name":"Lucky Plaza","address":"Shop 37A, Level 3, Lucky Plaza, Shatin, New Territories"},"coordinates":[7556,5176]},{"type":"Point","properties":{"name":"Luk Yeung Sun Chuen","address":"F20, 1/F, Luk Yeung Shopping Centre, Luk Yeung Sun Chuen, Tsuen Wan, New Territories"},"coordinates":[5397,4881]},{"type":"Point","properties":{"name":"Lung Cheung Mall","address":"Shop 107A & 108A, Level 1, Lung Cheung Mall , 136 Lung Cheung Road, Wong Tai Sin, Kowloon"},"coordinates":[7573,3982]},{"type":"Point","properties":{"name":"Ma On Shan","address":"Shop 222-225, Level 2, Ma On Shan Plaza, Ma On Shan, New Territories"},"coordinates":[8751,6440]},{"type":"Point","properties":{"name":"Maritime Square","address":"Unit 149, Level 1, Maritime Square, Tsing Yi, New Territories"},"coordinates":[5039,4485]},{"type":"Point","properties":{"name":"Mega Box","address":"Unit 6 on Level 5, Mega Box, Enterprise Square Five, 38 Wan Chiu Road, Kowloon Bay, Kowloon"},"coordinates":[8070,3314]},{"type":"Point","properties":{"name":"Mei Foo","address":"G/F, N58 & N65-N68, No.5-7 Mount Sterling Mall, Stage 7, Mei Foo, Kowloon"},"coordinates":[5979,3849]},{"type":"Point","properties":{"name":"Melbourne Plaza","address":"Shop G1-A, G/F, Melbourne Plaza, 33 Queen's Road Central,Hong Kong"},"coordinates":[6509,2213]},{"type":"Point","properties":{"name":"Metro City Phase II","address":"Shops UG026-27, Upper Ground Floor, Metro City Phase II,Tseung Kwan O, Town Lot No. 27"},"coordinates":[9562,3413]},{"type":"Point","properties":{"name":"Metro Town","address":"Shop Nos.L12-018 & L2-019 on Level 2 of the Commercial Development of Metro Town, Tseung Kwan O Town Lot.No.73, Tseung Kwan O, N.T."},"coordinates":[9385,2856]},{"type":"Point","properties":{"name":"Metroplaza","address":"Shop 221-223, Level 2, Metroplaza, Kwai Fong, New Territories"},"coordinates":[5619,4427]},{"type":"Point","properties":{"name":"Metropolis Mall","address":"Shop No. 719 & 720B, Level 7, The Metropolis Mall , 6 Metropolis Drive, Hunghom."},"coordinates":[7315,2824]},{"type":"Point","properties":{"name":"Mikiki","address":"Shop No. 135 on the First Floor of Mikiki, 638 Prince Edward Road East, San Po Kong, NKIL 6307, Kowloon"},"coordinates":[7695,3690]},{"type":"Point","properties":{"name":"Mong Kok East Station","address":"MTR Station Shop MKK 22 at Mong Kok East Station, Mongkok, Kowloon"},"coordinates":[6992,3387]},{"type":"Point","properties":{"name":"Mongkok","address":"Shop No.C1, G/F. & Whole of Mezzanine Floor, Wu Sang House, 655 Nathan Road, Mongkok, KLN"},"coordinates":[6893,3280]},{"type":"Point","properties":{"name":"Nam Tin Building","address":"Part of Ground Floor of Nam Tin Building, 275 King's Road, Hong Kong"},"coordinates":[7672,2446]},{"type":"Point","properties":{"name":"Nan Fung Centre","address":"Unit A120, Nan Fung Centre, 264-298 Castle Peak Road Tsuen Wan,Tsuen Wan, N.T."},"coordinates":[5295,4913]},{"type":"Point","properties":{"name":"Nathan Road","address":"Shop on G/F, Golden Dragon Commercial Building, No.522 Nathan Road, Kowloon"},"coordinates":[6945,3106]},{"type":"Point","properties":{"name":"New Jade Shopping Arcade","address":"Shop No. 113, Level 1, New Jade Shopping Arcade, Chai Wan, Hong Kong"},"coordinates":[8938,1679]},{"type":"Point","properties":{"name":"New Town Plaza","address":"Shops 451-453 on Level 4, New Town Plaza, Phase 1, Shatin, N.T."},"coordinates":[7460,5150]},{"type":"Point","properties":{"name":"New Yuen Long","address":"Shop 2 & 3, 8-10, G/F, Hing Fat House, 9-13 Kau Yuk Road, Yuen Long, New Territories"},"coordinates":[2614,6950]},{"type":"Point","properties":{"name":"Ngau Tau Kok Road","address":"Shop 1 on G/F, 327-33 Ngau Tau Kok Road, Kwun Tong, Kkowloon"},"coordinates":[8496,3181]},{"type":"Point","properties":{"name":"No.102-114 Belcher’s Street","address":"Shop G & H, G/F, No. 102-114 Belcher’s Street, Luen Yau Building, Sai Wan, Hong Kong"},"coordinates":[5642,2218]},{"type":"Point","properties":{"name":"Oi Man","address":"Shop No. G16, G/F, Oi Man Shopping Centre, No. 60 Chung Hau Street, Kowloon"},"coordinates":[7171,3090]},{"type":"Point","properties":{"name":"Olympian City","address":"Shop 108, 1/F., Olympian City 2, 18 Hoi Ting Road, Tsimshatsui, Kowloon"},"coordinates":[6684,3213]},{"type":"Point","properties":{"name":"Olympian City 3","address":"SHOP NOS. UG91 & UG92, UG/F, OLYMPIAN CITY 3, 1 HOI WANG ROAD, KLN"},"coordinates":[6588,3382]},{"type":"Point","properties":{"name":"On Ning Road","address":"Shop A and Cockloft on G/F, Sun Wing Building, 61 Yuen Long On Ning Road, Yuen Long, NT."},"coordinates":[2583,7042]},{"type":"Point","properties":{"name":"On Ting Shopping Centre","address":"Shop No. M205 and M206, Second Floor, Restaurant Block, On Ting Estate, Tuen Mun, New Territories"},"coordinates":[1032,5320]},{"type":"Point","properties":{"name":"Opulence Height","address":"Shop No. 4-5 on Ground Floor, Opulence Height, No.46A, 48 Castle Peak Road, Yuen Long, New Territories"},"coordinates":[2705,6991]},{"type":"Point","properties":{"name":"Pacific Place","address":"Unit 145, Level One, Pacific Place, Phase II, 88 Queensway,Hong Kong"},"coordinates":[6757,2081]},{"type":"Point","properties":{"name":"Palazzo","address":"Shop 102B, The Palazzo, Fo Tan, Shatin, N.T."},"coordinates":[7781,5525]},{"type":"Point","properties":{"name":"Po Heung Street","address":"Portion of G/F & 1/F, 82 Po Heung Street, Tai Po, New Territories"},"coordinates":[6806,7107]},{"type":"Point","properties":{"name":"Prince Edward Rd West","address":"Ground Floor, Nos. 135 Prince Edward Road West, Kowloon"},"coordinates":[6839,3437]},{"type":"Point","properties":{"name":"Prosperous Building","address":"Shop A on G/F & Shop B on G/F and B/M, Prosperous Building, 48-52 Des Voeux Road Central, Hong Kong"},"coordinates":[6505,2246]},{"type":"Point","properties":{"name":"Provident Centre","address":"Shop B20, Basement, Commercial Podium of Provident Ctr., 21-53 Wharf Road, North Point, HK"},"coordinates":[7678,2508]},{"type":"Point","properties":{"name":"Quarry Bay","address":"Portion of Lower Ground Floor, Fok Cheong Building, 1032-1044 King’s Road, Quarry Bay, Hong Kong"},"coordinates":[8197,2280]},{"type":"Point","properties":{"name":"Rambler Plaza","address":"Shop No. 7 on Level 1, Rambler Plaza, Rambler Crest, 1 Tsing Yi Road, Tsing Yi Town Lot 140, Tsing Yi, N.T."},"coordinates":[5103,4011]},{"type":"Point","properties":{"name":"Regentville","address":"Shop No. 27-28 on First Floor, Regentville Shopping Mall, 8 Wo Mun Street, Luen Wo Hui, Fanling, N.T."},"coordinates":[6136,8675]},{"type":"Point","properties":{"name":"Sai Kung","address":"Shop No. 54 & 55, G/F, Sai Kung Town Centre, 22-40 Fuk Man Rd, Sai Kung, N.T."},"coordinates":[9999,5181]},{"type":"Point","properties":{"name":"Sai Yeung Choi Street South","address":"Shop Nos. 2W and 2X Sai Yeung Choi Street South, Kowloon"},"coordinates":[6939,3196]},{"type":"Point","properties":{"name":"San Hong Street","address":"G/F & C/L, No. 86 San Hong Street North, Sheung Shui, New Territories"},"coordinates":[5679,8744]},{"type":"Point","properties":{"name":"San Po Kong","address":"G/F, 52 Tseuk Luk Street, Sanpokong, Kowloon"},"coordinates":[7712,3798]},{"type":"Point","properties":{"name":"Sau Fu Street","address":"G/F, 17 Sau Fu Street, Yuen Long, New Territories"},"coordinates":[2629,7015]},{"type":"Point","properties":{"name":"Sau Mau Ping Shopping Centre","address":"Shop 2, G/F, Sau Mau Ping Shopping Centre, 101 Sau Ming Road, Kwun Tong, Kowloon"},"coordinates":[8789,3315]},{"type":"Point","properties":{"name":"Sceneway Plaza","address":"Portion B of Shop No.1 of Unit 2 on Level (site 1) 26 of Commercial Development Sceneway Garden, No. 8 Sceneway Road, Kowloon"},"coordinates":[8836,2943]},{"type":"Point","properties":{"name":"Sha Tau Kok Chuen","address":"Shop 1 on G/F, Block 16, Sha Tau Kok Chuen, Sha Tau Kok"},"coordinates":[8553,9999]},{"type":"Point","properties":{"name":"Sham Shui Po","address":"Entrance of Shop C on G/F and Portion of Shops no. A & B on 1/F, Diamond Bldg., 2A – B Un Chau Street, Sham Shui Po, Kowloon"},"coordinates":[6753,3663]},{"type":"Point","properties":{"name":"Shatin Centre","address":"Shop 52A & 52B1, Level 3, Shatin Centre, N. T., STTL16"},"coordinates":[7530,5182]},{"type":"Point","properties":{"name":"Shatin Plaza","address":"Shop 33, L3, Shatin Plaza, STTL 189, N. T."},"coordinates":[7493,5192]},{"type":"Point","properties":{"name":"Shau Kei Wan","address":"Shop D & E, G/F., King Fai Building, 104 Shau Kei Wan Main Street, Hong Kong"},"coordinates":[8639,2071]},{"type":"Point","properties":{"name":"Shek Lei Estate II","address":"Shop No. 1, Ground Floor, Shek Lei Shopping Centre II, Shek Lei II Estate, Kwai Chung, New Territories"},"coordinates":[5984,4674]},{"type":"Point","properties":{"name":"Shek Yam","address":"Shop No. 101, LG 1/F., Shek Yam Shopping Centre, Shek Yam Estate, Kwai Chung, New Territories"},"coordinates":[5965,4848]},{"type":"Point","properties":{"name":"Sheung Fung Street","address":"Shop A & B, No.6 Sheung Fung Street and No. 2 Wan Fung Street, Wong Tai Sin, Kowloon"},"coordinates":[7750,4023]},{"type":"Point","properties":{"name":"Sheung Shui","address":"G/F & Cockloft, 43-45 Fu Hing Street, Sheung Shui, New Territories"},"coordinates":[5622,8753]},{"type":"Point","properties":{"name":"Sheung Shui Centre","address":"Shop 2037, Level 2, Sheung Shui Centre, 3 Chi Cheong Road, Sheung Shui, New Territories"},"coordinates":[5726,8669]},{"type":"Point","properties":{"name":"Sheung Shui Station","address":"MTR Station Shop SHS 3 at Sheung Shui Station"},"coordinates":[5652,8669]},{"type":"Point","properties":{"name":"Sheung Tak","address":"Shop 202, 2/F, Sheung Tak Shopping Centre, Tseung Kwan O, Kowloon"},"coordinates":[9599,3062]},{"type":"Point","properties":{"name":"Siu Sai Wan Shopping Centre","address":"Shop No. 108, First Floor, Siu Sai Wai Shopping Centre, Hong Kong"},"coordinates":[9295,1640]},{"type":"Point","properties":{"name":"Smartland","address":"Shop G7, G/F, East Asia Gardens, 16 Tsuen Wah Street, Tsuen Wan"},"coordinates":[5441,4766]},{"type":"Point","properties":{"name":"South Horizons","address":"Shop112, 112A & 113 Rear Portion, 1/F, South Horizon Marina Square West Comm.Ctr., Apleichau, HK"},"coordinates":[6212,1082]},{"type":"Point","properties":{"name":"Stanley","address":"G/F & 1/F, Shop A3&5 Stanley New Street,Stanley,Hong Kong"},"coordinates":[8204,342]},{"type":"Point","properties":{"name":"Star House","address":"Shop 1 & 2, G/F, Star House, 3 Salisbury Road, Tsimshatsui, Kowloon"},"coordinates":[6879,2574]},{"type":"Point","properties":{"name":"Sun Chui Estate","address":"Shop 4 on Ground Floor, Sun Chui Shopping Centre, Sun Chui Estate, Tai Wai, Shatin, New Territories, Hong Kong"},"coordinates":[7251,4779]},{"type":"Point","properties":{"name":"Sun Tuen Mun Centre","address":"Shop 125, Level 3, Sun Tuen Mun Shopping Centre, 55-65 Lung Mun Road, Tuen Mun, New Territories"},"coordinates":[681,5144]},{"type":"Point","properties":{"name":"Sunshine City","address":"Shop Nos. 2192-95, Level 2, Sunshine City Plaza, Ma On Shan, Shatin Town Lot 307"},"coordinates":[8782,6400]},{"type":"Point","properties":{"name":"Tai Kok Tsui","address":"Shop 1, G/F, Tai Kung Building, Cosmopolitan Estate, 107-127 Tai Kok Tsui Road,Tai Kok Tsui, KLN"},"coordinates":[6664,3378]},{"type":"Point","properties":{"name":"Tai Po Mega Mall","address":"Shop No. 673, Level 1, Zone D, Tai Po Mega Mall, Tai Po, New Territories"},"coordinates":[6892,7233]},{"type":"Point","properties":{"name":"Tai Wai","address":"Shop A & B, G/F & Cockloft, Chung Pak Lau, 28-30 Tai Wai Road, Tai Wai, New Territories"},"coordinates":[7150,4963]},{"type":"Point","properties":{"name":"Tai Wai KCR Station","address":"Shop No.31 & 32at the Unpaid Concourse, Tai Wai Station, MTR East Rail, New Territories."},"coordinates":[7164,4875]},{"type":"Point","properties":{"name":"Tai Wo Estate","address":"Shop 230, 230A and 231, Level 2, Tai Wo Shopping Centre, Tai Wo Estate, Tai Po, New Territories"},"coordinates":[6618,7181]},{"type":"Point","properties":{"name":"Taikooshing","address":"Unit 210, 2/F, Cityplaza N, Taikoo Shing, Quarry Bay, HK"},"coordinates":[8340,2320]},{"type":"Point","properties":{"name":"Tak Tin Shopping Centre","address":"Shop No. G2A, G/F, Tak Tin Shopping Centre, 223 Pik Wan Road, Lam Tin, Kowloon"},"coordinates":[8967,3041]},{"type":"Point","properties":{"name":"Telford Plaza","address":"Shop Units 506-507, Telford Plaza II, Kowloon Bay, Kowloon"},"coordinates":[8235,3442]},{"type":"Point","properties":{"name":"The Pacifica Mall","address":"Shop No. 41, 42 & 47, 2/F, The Pacifica Mall, No. 9 Sham Shing Road, Lai Chi Kok, Kowloon"},"coordinates":[6298,3743]},{"type":"Point","properties":{"name":"The World Trade Centre","address":"Shop No. P211A on Podium 2 of The World Trade Centre, 280 Gloucester Road, Causeway Bay"},"coordinates":[7344,2212]},{"type":"Point","properties":{"name":"Times Square","address":"Shop 905A, 9/F, Times Square, Causeway Bay, Hong Kong"},"coordinates":[7277,2098]},{"type":"Point","properties":{"name":"Tin Chak","address":"Shop No. 105, Tin Chak Shopping Centre, Tin Chak Estate, Tin Shui Wai, New Territories"},"coordinates":[1737,7705]},{"type":"Point","properties":{"name":"Tin Hau","address":"Shop C, C1 & D, G/F., Kiu Hing Mansion , 14 King's Road , North Point, Hong Kong"},"coordinates":[7591,2233]},{"type":"Point","properties":{"name":"Tin Ping Estate","address":"Shops 108 & 120 on Ground Floor, Tin Ping Shopping Centre, Tin Ping Estate, Sheung Shui, New Territories"},"coordinates":[5815,8737]},{"type":"Point","properties":{"name":"Tin Yiu Estate","address":"Shop Nos. L033 and L034, Ground Floor, Tin Yiu Shopping Centre, Tin Shui Wai, New Territories"},"coordinates":[1876,7183]},{"type":"Point","properties":{"name":"Tokwawan","address":"G/F, Shop 20-1, Portion of Shop 30B, Honor Building, 80-2 Tokwawan Road,Tokwawan,Kln"},"coordinates":[7534,3250]},{"type":"Point","properties":{"name":"Trend Plaza, Tuen Mun","address":"Shop 11A &11B, Level 2, South Wing, Trend Plaza, Tuen Mun, N.T."},"coordinates":[1039,5486]},{"type":"Point","properties":{"name":"Tseng Choi Street","address":"Shop Nos11 & 12 on G/F, Kam Men Mansion, No.15 Tseng Choi Street, Tuen Mun, New Territores"},"coordinates":[1108,5759]},{"type":"Point","properties":{"name":"Tsuen Wan Plaza","address":"Shop Nos. 201-202, Level 2, Tsuen Wan Plaza, Tsuen Wan, N.T."},"coordinates":[5125,4828]},{"type":"Point","properties":{"name":"Tsz Wan Shan","address":"Shop 414-416, Tsz Wan Shan Shopping Centre, 23 Yuk Wah Street, Tze Wan Shan, Kln"},"coordinates":[7831,4135]},{"type":"Point","properties":{"name":"Tuen Mun","address":"Shop 2115-2122, 2/F, Tuen Mun Town Plaza, Tuen Mun, New Territories"},"coordinates":[1069,5494]},{"type":"Point","properties":{"name":"Tuen Mun Town Plaza Phase II","address":"Shop Nos. 43, 1/F, Tuen Mun Town Plaza Phase II, 3 Tuen Long Street, Tuen Mun, New Territories"},"coordinates":[1065,5511]},{"type":"Point","properties":{"name":"Tung Chung MTR Station (Shop no. 1)","address":"MTR Concessions TUC 11 and TUC 12, MTR Tung Chung Station, Lantau Island, Hong Kong"},"coordinates":[0,2414]},{"type":"Point","properties":{"name":"Tung Chung MTR Station (Shop no. 2)","address":"MTR Station Concessions TUC 23-24, MTR Tung Chung Station, Lantau Island, Hong Kong"},"coordinates":[0,2414]},{"type":"Point","properties":{"name":"Tung Lo Wan Road","address":"Portion of Portion # 2 of Shop A, G/F., Cathay Mansion, 3-5 Tung Lo Wan Road, Causeway Bay, HK"},"coordinates":[7455,2119]},{"type":"Point","properties":{"name":"Un Chau Shopping Centre","address":"Shop No.1, Un Chau Shopping Centre, Un Chau Street, Hong Kong"},"coordinates":[6458,3874]},{"type":"Point","properties":{"name":"Union Park Centre","address":"Shop Nos. 4-6, Ground Floor, Union Park Centre, 771-775 Nathan Road, Mongkok, Kowloon, Hong Kong"},"coordinates":[6850,3485]},{"type":"Point","properties":{"name":"United Centre","address":"Shop 1003-1004, 1/F., United Centre, 95 Queensway Road, Hong Kong"},"coordinates":[6772,2106]},{"type":"Point","properties":{"name":"Uptown Plaza","address":"Shop 079-082, Level 1, Uptown Plaza, Tai Po, New Territories"},"coordinates":[6891,6985]},{"type":"Point","properties":{"name":"V City","address":"Shop M -32, MTR Level, V City, 83 Tuen Mun Heung Sze Wui Road, Tuen Mun, N.T."},"coordinates":[997,5521]},{"type":"Point","properties":{"name":"Wah Ming Centre","address":"G/F,Wah Ming Centre,396 Des Voeux Road West,Hong Kong"},"coordinates":[5913,2351]},{"type":"Point","properties":{"name":"Waldorf Avenue","address":"Shop No. 5B1 on Level Three of Waldorf Avenue, No 1 Tuen Lee Street, Tuen Mun, New Territories"},"coordinates":[1111,5447]},{"type":"Point","properties":{"name":"Whampoa Garden","address":"Shop G5 & B7, G/F & B/F, Site 2, Whampoa Garden, 9 Shung King Street, Hunghom, Kowloon"},"coordinates":[7493,2890]},{"type":"Point","properties":{"name":"Windsor House","address":"Shop 73, 75 & 76 on Basement, Windsor House, 311 Gloucester Road, Causeway Bay, HK"},"coordinates":[7413,2159]},{"type":"Point","properties":{"name":"Wo Che Estate","address":"Shop No. 233, Second Floor, Wo Che Shopping Centre, Wo Che Estate, Shatin, NT"},"coordinates":[7681,5328]},{"type":"Point","properties":{"name":"Wong Tai Sin Shopping Centre","address":"Shop No. B02, Basement Floor, Wong Tai Sin Shopping Centre, Wong Tai Sin Estate, Kowloon"},"coordinates":[7649,3958]},{"type":"Point","properties":{"name":"Yuen Long","address":"G/F, 1/F & 2/F, 142 Castle Peak Road,Yuen Long, New Territories"},"coordinates":[2604,6996]},{"type":"Point","properties":{"name":"Yuen Long Citimall","address":"Shop Nos. 2, 41 & 42, G/F, Citimall, 1 Kau Yuk Road, Yuen Long"},"coordinates":[2638,6943]},{"type":"Point","properties":{"name":"Yuen Long Plaza","address":"Shop Nos. 65-70 on G/F, Yuen Long Plaza, 245-251 Castle Peak Road, Yuen Long, New Territories"},"coordinates":[2501,7010]}]}},"arcs":[],"transform":{"scale":[0.00003308670867086809,0.000033905290529052945],"translate":[113.941234,22.207235]}}