{"type":"Topology","objects":{"wellcome":{"type":"GeometryCollection","geometries":[{"type":"Point","properties":{"name":"Allway Gardens","address":"Shopping Centre, Phase 1, Allway Gardens, Tsuen Wan, Hong Kong"},"coordinates":[4983,5054]},{"type":"Point","properties":{"name":"Ap Lei Chau","address":"127 – 139 Ap Lei Chau Main Street, Aberdeen, Hong Kong"},"coordinates":[6498,1081]},{"type":"Point","properties":{"name":"Aster Court","address":"Aster Court 8 Hung Shui Kiu, Yuen Long, Hong Kong"},"coordinates":[1796,6697]},{"type":"Point","properties":{"name":"Austin Road","address":"45-53 Austin Road, Hong Kong"},"coordinates":[6960,2841]},{"type":"Point","properties":{"name":"Avon Park","address":"Avon Park, Fanling, Hong Kong"},"coordinates":[6165,8264]},{"type":"Point","properties":{"name":"Beacon Heights","address":"Shopping Ctr, Beacon Heights, 9-13 Lung Ping Road, Hong Kong"},"coordinates":[6858,3987]},{"type":"Point","properties":{"name":"Belcher's Street","address":"G/F Lungga Mansion 46A Belcher's Street, Hong Kong"},"coordinates":[5753,2229]},{"type":"Point","properties":{"name":"Belgian Bank Building","address":"the Belgian Bank Building Nos 721 - 725an Road, Mongkok, Hong Kong"},"coordinates":[5158,5589]},{"type":"Point","properties":{"name":"Beverly Garden","address":"No1 Tong Ming St, Beverly Garden, Tseung Kwan O, Hong Kong"},"coordinates":[9682,3058]},{"type":"Point","properties":{"name":"Bonham Road","address":"Kingland Court, 66B Bonham Road, Hong Kong"},"coordinates":[6158,2277]},{"type":"Point","properties":{"name":"Broadview Garden","address":"Braodview Garden Comm Ctr, Tsing Luk St, Tsing Yi, Hong Kong"},"coordinates":[4993,4368]},{"type":"Point","properties":{"name":"Butterfly Superstore","address":"Butterfly Plaza, Hong Kong"},"coordinates":[808,4947]},{"type":"Point","properties":{"name":"Caine Road","address":"99 Caine Road, Hong Kong"},"coordinates":[6397,2227]},{"type":"Point","properties":{"name":"Cambridge Court","address":"84E Waterloo Road, Cambridge Court, Hong Kong"},"coordinates":[7156,3319]},{"type":"Point","properties":{"name":"Cartwright Garden","address":"Cartwright Garden, No 1 Bonham Road, Hong Kong"},"coordinates":[6262,2266]},{"type":"Point","properties":{"name":"Causeway Bay Superstore","address":"25-29 Great George Street, Causeway Bay, Hong Kong"},"coordinates":[7433,2169]},{"type":"Point","properties":{"name":"Central","address":"Queen's Road Central, Hong Kong"},"coordinates":[6487,2283]},{"type":"Point","properties":{"name":"Central House","address":"Central House, Nos 270 - 276 Queen's Road Central, Hong Kong"},"coordinates":[6387,2284]},{"type":"Point","properties":{"name":"Chestwood Court","address":"Chestwood Court, Kingswood Villas Phase 3, No 8 Tin Shui Rd, Tin Shui Wai, Yuen Long, Hong Kong"},"coordinates":[1869,7389]},{"type":"Point","properties":{"name":"Cheung Chau","address":"89-91 San Hing Street, Cheung Chau Island, Hong Kong"},"coordinates":[2756,73]},{"type":"Point","properties":{"name":"Cheung Chau 2","address":"95-97 Praya Street, Cheung Chau, Hong Kong"},"coordinates":[2751,0]},{"type":"Point","properties":{"name":"Cheung Ching","address":"Cheung Ching Commercial Centre, Cheung Ching Estate, Tsing Yi, Hong Kong"},"coordinates":[5092,4469]},{"type":"Point","properties":{"name":"Cheung Fat","address":"Nos 14 Cheung Fat Building, Yu King Square, Yuen Long, Hong Kong"},"coordinates":[2734,6986]},{"type":"Point","properties":{"name":"Cheung Hang","address":"Cheung Hang Shopping Centre, Cheung Hang Estate, Tsing Yi, Hong Kong"},"coordinates":[4805,4338]},{"type":"Point","properties":{"name":"Cheung Hong","address":"Cheung Hong Estate, Tsing Yi, Hong Kong"},"coordinates":[5042,4220]},{"type":"Point","properties":{"name":"Chi Kiang Street","address":"1/F 39-41 Tokwawan Road, Hong Kong"},"coordinates":[7521,3189]},{"type":"Point","properties":{"name":"Chi Lok","address":"Shopping Centre, Chi Lok Fa Yuen, Tuen Mun, Hong Kong"},"coordinates":[1076,5423]},{"type":"Point","properties":{"name":"Choi Hung","address":"Choi Hung Estate, Hong Kong"},"coordinates":[8022,3809]},{"type":"Point","properties":{"name":"Choi Ming 2","address":"Choi Ming Shopping Centre, Choi Ming Estate, Tseung Kwan O, Hong Kong"},"coordinates":[9378,2923]},{"type":"Point","properties":{"name":"Choi Yuen Superstore","address":"Choi Yuen Estate, Sheung Shui, Hong Kong"},"coordinates":[5643,8665]},{"type":"Point","properties":{"name":"Chong Yip Centre","address":"Chong Yip Centre, 402-404 Des Voeux Road West, Hong Kong"},"coordinates":[5971,2351]},{"type":"Point","properties":{"name":"Chui Tong","address":"1 Chui Tong Road, Sai Kung, Hong Kong"},"coordinates":[9884,5108]},{"type":"Point","properties":{"name":"Chuk Yuen","address":"Chuk Yuen Plaza, Hong Kong"},"coordinates":[7654,4074]},{"type":"Point","properties":{"name":"Chung Fu 2","address":"G/F Chung Fu Shopping Plaza, Tin Chung Court, Tin Shui Wai, Hong Kong"},"coordinates":[5830,8812]},{"type":"Point","properties":{"name":"Chung Hom Kok","address":"39 Chung Hom Kok Road, Chung Hom Kok, Hong Kong"},"coordinates":[7966,379]},{"type":"Point","properties":{"name":"Chung Hwa Plaza","address":"G/F Chung Hwa Plaza, 5D - 5F Ma Hang Chung Road, Ma Tau Kok, Hong Kong"},"coordinates":[6163,8611]},{"type":"Point","properties":{"name":"Chung On Estate","address":"Chung On Shopping Centre, Chung On Estate, Shatin, Hong Kong"},"coordinates":[5158,5589]},{"type":"Point","properties":{"name":"Chun Seen Mei","address":"Chun Seen Mei Chuen, Tokwawan, Hong Kong"},"coordinates":[7517,3508]},{"type":"Point","properties":{"name":"Chun Shek","address":"Shopping Centre, Chun Shek Estate, Shatin, Hong Kong"},"coordinates":[6270,3704]},{"type":"Point","properties":{"name":"City Garden 2","address":"Commerial Podiums Below Block, City Garden, No 233 Electrial Road, Hong Kong"},"coordinates":[5158,5589]},{"type":"Point","properties":{"name":"Coastal Skyline","address":"Commercial Complex of Coastal Skyline, 12 Tung Chung Waterfront Rd, Tung Chung, Hong Kong"},"coordinates":[277,2482]},{"type":"Point","properties":{"name":"Concord Square","address":"Concord Square, 88 Chuen Lung Street, Tsuen Wan, Hong Kong"},"coordinates":[5356,4829]},{"type":"Point","properties":{"name":"Discovery Bay Superstore","address":"92 Siena Avenue, Discovery Bay North Development, Discovery Bay, Hong Kong"},"coordinates":[2198,2512]},{"type":"Point","properties":{"name":"Dragon Centre Superstore","address":"Dragon Centre, No 37K Yen Chow Street, Shamshuipo, Hong Kong"},"coordinates":[6658,3659]},{"type":"Point","properties":{"name":"Fair Way Garden","address":"Fair Way Garden, No7 Liberty Avenue, Hong Kong"},"coordinates":[5158,5589]},{"type":"Point","properties":{"name":"Fanling Centre","address":"Phase II, Fanling Centre, Fanling, Hong Kong"},"coordinates":[6007,8260]},{"type":"Point","properties":{"name":"Far East","address":"Far East Consortium Building, No 204-206 Nathan Road Kowloon, Hong Kong"},"coordinates":[7021,2853]},{"type":"Point","properties":{"name":"Flora Plaza Superstore","address":"Flora Plaza, 88 Pak Wo Road, FSSTL 113, Fanling, Hong Kong"},"coordinates":[6007,8260]},{"type":"Point","properties":{"name":"Fortress Metro Tower Superstore","address":"Fortress Metro Tower, 238 King’s Road, Hong Kong"},"coordinates":[7677,2392]},{"type":"Point","properties":{"name":"Fo Tan","address":"Shatin Galleria, 18-24 Sha Mei Street, Fo Tan, Hong Kong"},"coordinates":[7694,5589]},{"type":"Point","properties":{"name":"Fu Bong","address":"Fu Bong Mansion, Nos 106-110 Tsat Tze Mui Road, North Point, Hong Kong"},"coordinates":[7995,2490]},{"type":"Point","properties":{"name":"Fullagar","address":"Fullagar Industrial Building, No 234 Aberdeen Main Road, Aberdeen, Hong Kong"},"coordinates":[6446,1235]},{"type":"Point","properties":{"name":"Fung Wah","address":"Fung Wah Estate, Chai Wan, Hong Kong"},"coordinates":[8790,1588]},{"type":"Point","properties":{"name":"Fung Wong","address":"1-3 Tsui Fung Street, Tse Wan Shan, Hong Kong"},"coordinates":[7775,4057]},{"type":"Point","properties":{"name":"Fu Shin","address":"6-14 Fun Shin Street, Tai Po Market, Tai Po, Hong Kong"},"coordinates":[6976,7008]},{"type":"Point","properties":{"name":"Fu Tung","address":"Fu Tung Plaza, Fu Tung Estate, Tung Chung, Hong Kong"},"coordinates":[152,2358]},{"type":"Point","properties":{"name":"Gillies Avenue South","address":"Yuen Shing Building, 9-21 Gillies Avenue South, Hung Hom, Hong Kong"},"coordinates":[7374,2940]},{"type":"Point","properties":{"name":"Glorious Garden","address":"Glorious Garden, Lung Mun Road, Tuen Mun, Hong Kong"},"coordinates":[892,5179]},{"type":"Point","properties":{"name":"Golden Centre","address":"Golden Centre, 94 YenChow Street, Shamshuipo, Hong Kong"},"coordinates":[6723,3699]},{"type":"Point","properties":{"name":"Golden Hill","address":"Wonderlan Villas Commercial Compiex, Wah King Hill RoadKwai Chung, Hong Kong"},"coordinates":[5977,4270]},{"type":"Point","properties":{"name":"Golden Plaza 1","address":"15 & 17-18 and a Corridor, Golden Plaza, 28 Shui Che Kwun Street, Yuen Long, Hong Kong"},"coordinates":[2832,7024]},{"type":"Point","properties":{"name":"Gold Luck","address":"989-992 King's Road, Quarry Bay, Hong Kong"},"coordinates":[8185,2309]},{"type":"Point","properties":{"name":"Grandeur Terrace","address":"Grandeur Terrace, No88 Tin Shui Road, Tin Shui Wai, Hong Kong"},"coordinates":[1935,7748]},{"type":"Point","properties":{"name":"Hanford Garden","address":"Hanford Plaza, Hanford Garden, 33 Castle Peak Road, Tuen Mun, Hong Kong"},"coordinates":[1223,5580]},{"type":"Point","properties":{"name":"Happy Valley 2","address":"Elegance Court 2-4 Tsoi Tak Street, Happy Velley, Hong Kong"},"coordinates":[7432,1844]},{"type":"Point","properties":{"name":"Healthy Village","address":"Healthy Village I Development, 188 Tsat Tsz Mui Road, North Point, Hong Kong"},"coordinates":[7995,2490]},{"type":"Point","properties":{"name":"Heng On","address":"Commercial Centre, Heng On Estate, Ma On Shan, Shatin, Hong Kong"},"coordinates":[5158,5589]},{"type":"Point","properties":{"name":"Hennessy Road","address":"418-428 Hennessy Road, Wanchai, Hong Kong"},"coordinates":[7286,2123]},{"type":"Point","properties":{"name":"Hing Tin","address":"Hing Tin Estate, Lam Tin, Hong Kong"},"coordinates":[8968,3069]},{"type":"Point","properties":{"name":"Hing Wah","address":"Restaurant Block, Hing Wah Estate II, Chai Wan, Hong Kong"},"coordinates":[8962,1701]},{"type":"Point","properties":{"name":"Hoi Fu","address":"Hoi Fu Shopping Centre, Hoi Fu Court, Hoi Wang Road, Mongkok West, Hong Kong"},"coordinates":[5158,5589]},{"type":"Point","properties":{"name":"Hoi Sum","address":"Happy Building, 220-230 Tai Po Road, Shamshuipo, Hong Kong"},"coordinates":[6795,3703]},{"type":"Point","properties":{"name":"Hong Lai","address":"Tuen Mun Paris London New York Cinema Shopping Centre, Hong Kong"},"coordinates":[1143,5650]},{"type":"Point","properties":{"name":"Hop Yick","address":"Hop Yick Centre, 31-47 Hop Yick Road, Yuen Long, Hong Kong"},"coordinates":[2820,6921]},{"type":"Point","properties":{"name":"Hung Hom Centre","address":"Hung Hom Comm Centre, 37-39 Ma Tau Wai Road, Hung Hom, Hong Kong"},"coordinates":[7499,3034]},{"type":"Point","properties":{"name":"Hung Hom Superstore","address":"1-7 Wu Kwong Street, Hung Hom, Hong Kong"},"coordinates":[7453,2927]},{"type":"Point","properties":{"name":"Indi Home","address":"138 Yeung Uk Road, Tsuen Wan, Hong Kong"},"coordinates":[5421,4699]},{"type":"Point","properties":{"name":"Infinity 8","address":"Choi Hung Park & Development NKIL 6179, Clearwater Bay Road, Hong Kong"},"coordinates":[5158,5589]},{"type":"Point","properties":{"name":"Island Lodge","address":"6 and 7, 61 & 63 Marble Rd, North Point, Hong Kong"},"coordinates":[7899,2510]},{"type":"Point","properties":{"name":"Jade Mansion","address":"40 Waterloo Road, Yau Ma Tei East, Hong Kong"},"coordinates":[6991,3121]},{"type":"Point","properties":{"name":"Jaffe Road","address":"Jaffe Road, Causeway Bay, Hong Kong"},"coordinates":[7165,2123]},{"type":"Point","properties":{"name":"Johnston Road","address":"Everwin Mansion, No 18 Johnston Road, Wanchai, Hong Kong"},"coordinates":[6961,2065]},{"type":"Point","properties":{"name":"Jordan Road","address":"United Mansion, 37J Jordan Road, Hong Kong"},"coordinates":[6936,2915]},{"type":"Point","properties":{"name":"Julimount Garden","address":"Julimount Garden, Nos 1-5 Hin Tai Street, Shatin, Hong Kong"},"coordinates":[5158,5589]},{"type":"Point","properties":{"name":"Kam Tai","address":"Kam Tai Shopping Ctr, Kam Tai Coirt, Ma On Shan, Hong Kong"},"coordinates":[9196,5785]},{"type":"Point","properties":{"name":"Kam Tin","address":"Kam Tin Theatre Building, Kam Tin Road, Lot 1684 in DD 109, Kam Tin, Hong Kong"},"coordinates":[3846,7315]},{"type":"Point","properties":{"name":"Kam Wing","address":"35 Kam Wing Street & 2-12 Shing Ling Street, San Po Kong, Hong Kong"},"coordinates":[5724,8806]},{"type":"Point","properties":{"name":"Kar Shing","address":"YLTL 274, Kar Shing Building, Kau Yuk Road, Yuen Long, Hong Kong"},"coordinates":[2708,6955]},{"type":"Point","properties":{"name":"Ka Wo Building","address":"Ka Wo Street, Ka Wo Building 6B-6C, Tin Wan, Hong Kong"},"coordinates":[6330,1268]},{"type":"Point","properties":{"name":"Kimberley Road","address":"Luna Court, Nos 53-54, Kimberley Road, TST, Hong Kong"},"coordinates":[5158,5589]},{"type":"Point","properties":{"name":"Kin Sang","address":"Shopping Centre, Kin Sang Estate, Tuen Mun, Hong Kong"},"coordinates":[1076,5423]},{"type":"Point","properties":{"name":"Kornhill","address":"18 Hong Shing Street, Kornhill, Hong Kong"},"coordinates":[8310,2177]},{"type":"Point","properties":{"name":"Ko Way 2","address":"Eastern Plaza, No 111 Chai Wan Road, Hong Kong"},"coordinates":[8920,1644]},{"type":"Point","properties":{"name":"Kwai Chung Fa Yuen","address":"50-56 Wo Yi Hop Road, KCTL 266, Kwai Chung, Hong Kong"},"coordinates":[5919,4569]},{"type":"Point","properties":{"name":"Kwai Chung Superstore","address":"Kwai Chung Shopping Centre, Kwai Chung Estate, Kwai Chung, Hong Kong"},"coordinates":[6270,3704]},{"type":"Point","properties":{"name":"Kwai Shing","address":"Kwai Shing East Estate, Kwai Chung, Hong Kong"},"coordinates":[5644,4618]},{"type":"Point","properties":{"name":"Kwai Shing West","address":"kwai Shing Estate (West), Kwai Chung, Hong Kong"},"coordinates":[5581,4597]},{"type":"Point","properties":{"name":"Kwong Tin","address":"Kwong Tin Shopping Centre, Kwong Tin Estate, Lam Tin, Hong Kong"},"coordinates":[8830,2946]},{"type":"Point","properties":{"name":"Kwong Wah Superstore","address":"38 Fau Tsoi Street, Yuen Long, Hong Kong"},"coordinates":[2789,6986]},{"type":"Point","properties":{"name":"Kwong Yuen","address":"Kwong Yuen Shopping Centre, Kwong Yuen Estate, Shatin, Hong Kong"},"coordinates":[5158,5589]},{"type":"Point","properties":{"name":"Kwun Tong","address":"22-26 Yee On Street, Kwun Tong, Hong Kong"},"coordinates":[8552,3188]},{"type":"Point","properties":{"name":"Lai Chi Kok","address":"324-330 Lai Chi Kok Road, Shamshuipo, Hong Kong"},"coordinates":[6684,3592]},{"type":"Point","properties":{"name":"Lai Tak","address":"Tsuen Wing Lau, 4-14 Lai Tak Tsuen Rd, Lai Tak Tsuen, Tai Hang, Hong Kong"},"coordinates":[7668,2012]},{"type":"Point","properties":{"name":"Lake Silver","address":"Lake Silver 599 Sai Sha Rd, Wu Kai Sha, Hong Kong"},"coordinates":[9193,6535]},{"type":"Point","properties":{"name":"Lam Tei","address":"Sherwood Place, No8 Fuk Hang Tsuen Road, Lam Tei, Tuen Mun, Hong Kong"},"coordinates":[1580,6196]},{"type":"Point","properties":{"name":"Lam Tin Superstore","address":"Kai Tin Shopping Centre, Kai Tin Estate, Lam Tin, Hong Kong"},"coordinates":[8891,2999]},{"type":"Point","properties":{"name":"Lei Muk Shue 2","address":"Lei Muk Shue Estate, Tsuen Wan, Hong Kong"},"coordinates":[5970,5038]},{"type":"Point","properties":{"name":"Lei Yue Mun Plaza Superstore","address":"Lei Yue Mun Plaza, Lei Yue Mun Esate, Yau Tong, Hong Kong"},"coordinates":[9034,2638]},{"type":"Point","properties":{"name":"Leung King 2 Superstore","address":"Shopping Centre, Leung King Estate, Tuen Mun, Hong Kong"},"coordinates":[1076,5423]},{"type":"Point","properties":{"name":"Liberte Superstore","address":"833 Lai Chi Kok Road, Cheung Sha Wan, Hong Kong"},"coordinates":[6340,3766]},{"type":"Point","properties":{"name":"Lion Rock Road","address":"Nos 45 & 47, Lion Rock Road City, Hong Kong"},"coordinates":[5158,5589]},{"type":"Point","properties":{"name":"Lohas Park","address":"Lohas Park Temporary market on the roof Lohas Park MTR Station, Hong Kong"},"coordinates":[9899,2608]},{"type":"Point","properties":{"name":"Lok Ma Chau","address":"Lok Ma Chau Station, Hong Kong"},"coordinates":[3852,9071]},{"type":"Point","properties":{"name":"Lok Ma Chau 2","address":"Lok Ma Chau Station, Hong Kong"},"coordinates":[3852,9071]},{"type":"Point","properties":{"name":"Lok Man Sun Chuen","address":"Lok Chee Lau, Lok Man Sun Chuen, No109 Ko Shan Rd, Tokwawan, Hong Kong"},"coordinates":[7454,3194]},{"type":"Point","properties":{"name":"Long Ping","address":"Long Ping Commercial Centre, Long Ping Estate, Yuen Long, Hong Kong"},"coordinates":[2728,6967]},{"type":"Point","properties":{"name":"Lucky Centre","address":"Wan Chai Road, Hong Kong"},"coordinates":[7168,2066]},{"type":"Point","properties":{"name":"Luen Wo","address":"No 11 & 12 Comfort Court, 65-73 Luen Wo Road, Fanling, Hong Kong"},"coordinates":[6182,8615]},{"type":"Point","properties":{"name":"Lung Hang","address":"Lung Hang Shopping Centre, Lung Hang Estate, Shatin, Hong Kong"},"coordinates":[5158,5589]},{"type":"Point","properties":{"name":"Lung Poon Court","address":"Lung Poon Court, Diamond Hill, Hong Kong"},"coordinates":[7891,3968]},{"type":"Point","properties":{"name":"Ma Hang Chung","address":"Cheung Wan Bldg, 8-10 Ma Hang Chung Rd, Hong Kong"},"coordinates":[7514,3326]},{"type":"Point","properties":{"name":"Marble Road","address":"33 Marble Road, North Point, Hong Kong"},"coordinates":[7876,2510]},{"type":"Point","properties":{"name":"Marina Cove","address":"Marina Cove Shopping Centre, 380 Hiram's Highway, Ho Chung, Sai Kung, Hong Kong"},"coordinates":[9402,4386]},{"type":"Point","properties":{"name":"Maritime Bay Superstore","address":"Maritime Bay, No 18 Pui Shing Road, Tseung Kwan O, Sai Kung, Hong Kong"},"coordinates":[9817,3179]},{"type":"Point","properties":{"name":"Mayfair","address":"Commercial Ctr, Northern Block, Mayfair Gardens, TYTL 83, Tsing Yi, Hong Kong"},"coordinates":[5092,4469]},{"type":"Point","properties":{"name":"Mega Box","address":"MegaBox 38 Wang Chiu Road Bay, Hong Kong"},"coordinates":[8108,3319]},{"type":"Point","properties":{"name":"Mei Foo","address":"7A Glee Path, Mei Foo Sun Chuen Stage II, Lai Chi Kok, Hong Kong"},"coordinates":[6070,3819]},{"type":"Point","properties":{"name":"Mei Foo Superstore","address":"at the Cinema, Broadway Street, Mei Foo Sun Chuen, Hong Kong"},"coordinates":[6074,3825]},{"type":"Point","properties":{"name":"Mei Lam","address":"Mei Lam Estate, Shatin, Hong Kong"},"coordinates":[7809,4915]},{"type":"Point","properties":{"name":"Mei Tin","address":"Mei Tin Shopping Centre, Mei Tin Estate, Tai Wai, Shatin, Hong Kong"},"coordinates":[8761,6298]},{"type":"Point","properties":{"name":"Mercury Street","address":"28 Mercury Street, North Point, Hong Kong"},"coordinates":[7618,2331]},{"type":"Point","properties":{"name":"Metrocity 3 Superstore","address":"Metro City Phase 3, The Metropolis, 8 Mau Yip Road, Tseung Kwan O, Hong Kong"},"coordinates":[9558,3404]},{"type":"Point","properties":{"name":"Metro Harbour Plaza Superstore","address":"Metro Harbour Plaza, 8 Fuk Lee Street, Tai Kok Tsui, Hong Kong"},"coordinates":[6712,3463]},{"type":"Point","properties":{"name":"Metropole Superstore","address":"Metropole Building, No 416-426 King's Road, North Point, Hong Kong"},"coordinates":[7834,2461]},{"type":"Point","properties":{"name":"Mongkok Building","address":"No93-95 Mongkok Road, Hong Kong"},"coordinates":[6994,3366]},{"type":"Point","properties":{"name":"Nam Cheong Estate","address":"14 - 22 Cheong Yat House, 99 - 103A Nam Cheong Estate, Shamshuipo, Hong Kong"},"coordinates":[6700,3530]},{"type":"Point","properties":{"name":"Nam Cheong Street","address":"223-237 Nam Cheong Street, Hong Kong"},"coordinates":[6882,3749]},{"type":"Point","properties":{"name":"Nan Fung Plaza","address":"Podium Level One of the Commercial Portion of Nan Fung Plaza, No 8 Pui Shing Rd, Tseung Kwan O, Hong Kong"},"coordinates":[9771,3176]},{"type":"Point","properties":{"name":"Nathan Centre","address":"Basement No580G-580Kan Centrean Road, Hong Kong"},"coordinates":[5158,5589]},{"type":"Point","properties":{"name":"Nathan Road","address":"Hanson House, 794-802 Nathan Road, Hong Kong"},"coordinates":[6907,3520]},{"type":"Point","properties":{"name":"Nina Tower","address":"8 Yeung Uk Road, Tsuen Wan, Hong Kong"},"coordinates":[5262,4772]},{"type":"Point","properties":{"name":"No. 8 Garden","address":"TPTL No 8, On Chee Road, Tai Po, Hong Kong"},"coordinates":[6913,7253]},{"type":"Point","properties":{"name":"North Point","address":"338 King's Road, North Point, Hong Kong"},"coordinates":[7778,2459]},{"type":"Point","properties":{"name":"North Street","address":"Harbour View Garden, 21 North Street, Hong Kong"},"coordinates":[5744,2251]},{"type":"Point","properties":{"name":"Oceanic Heights","address":"2 Hoi Chu Road, Tuen Mun, Hong Kong"},"coordinates":[1057,5214]},{"type":"Point","properties":{"name":"Oi Man","address":"Oi Man Commercial Complex, Oi Man Estate, Homantin, Hong Kong"},"coordinates":[5158,5589]},{"type":"Point","properties":{"name":"On Fai","address":"On Fai Building, 82 Old Main Street, Aberdeen, Hong Kong"},"coordinates":[6548,1218]},{"type":"Point","properties":{"name":"On Kay","address":"On Kay Court, Kwun Tong, Hong Kong"},"coordinates":[8361,3386]},{"type":"Point","properties":{"name":"On Yam","address":"On Yam Shopping Centre, On Yam Estate, Kwai Chung, Hong Kong"},"coordinates":[5919,4569]},{"type":"Point","properties":{"name":"Palm Springs","address":"Palm Springs Garden, Yuen Long, Hong Kong"},"coordinates":[3461,8225]},{"type":"Point","properties":{"name":"Park Central Superstore","address":"Park Central, Tseung Kwan O Town, Lot 57&66, AREA57, Tseung Kwan O, Sai Kung, Hong Kong"},"coordinates":[9550,3096]},{"type":"Point","properties":{"name":"Pau Cheung Square","address":"8 Yuen Long Pau Cheung Square, Yuen Long, Hong Kong"},"coordinates":[2762,7043]},{"type":"Point","properties":{"name":"Peng Chau","address":"12 Po Peng St, Peng Chau, Hong Kong"},"coordinates":[3012,2317]},{"type":"Point","properties":{"name":"Perfect Mount","address":"Perfect Mount Garden, 1 Po Man Street, Shaukeiwan, Hong Kong"},"coordinates":[8730,2116]},{"type":"Point","properties":{"name":"Ping Wui","address":"Ping Wui Centre, Ping Wui Street, Yuen Long, Hong Kong"},"coordinates":[2551,7067]},{"type":"Point","properties":{"name":"Plover Cove Garden","address":"Plover Cove Garden No 3 Plover Cove Rd, Tai Po, Hong Kong"},"coordinates":[6915,7145]},{"type":"Point","properties":{"name":"Pok Hong","address":"Pok Hong Estate, Shatin, Hong Kong"},"coordinates":[7667,4977]},{"type":"Point","properties":{"name":"Po On Road","address":"Lei Cheng Uk Shopping Centre, Lei Cheng Uk Estate, Hong Kong"},"coordinates":[5158,5589]},{"type":"Point","properties":{"name":"Port Centre","address":"Port Centre, No38 Cheng Tu Road, Aberdeen, Hong Kong"},"coordinates":[6627,1331]},{"type":"Point","properties":{"name":"Prince Centre","address":"Prince Centre, 70 Tai Po Road, Shamshuipo, Hong Kong"},"coordinates":[6875,3585]},{"type":"Point","properties":{"name":"Prince Edward","address":"388-390 Prince Edward Road City, Hong Kong"},"coordinates":[7518,3559]},{"type":"Point","properties":{"name":"Prosperity Court","address":"Prosperity court, No 168 Lai Chi Kok Road, Hong Kong"},"coordinates":[6800,3502]},{"type":"Point","properties":{"name":"Prosperous Garden","address":"3 Public Square Street, Hong Kong"},"coordinates":[6902,3050]},{"type":"Point","properties":{"name":"Redhill Plaza","address":"G/F Red Hill Plaza, Tai Tam, Hong Kong"},"coordinates":[8547,871]},{"type":"Point","properties":{"name":"Regentville","address":"Regentville, Phase 1, 8 Wo Mun Street, Luen Wo Hui, Fanling, Hong Kong"},"coordinates":[6193,8666]},{"type":"Point","properties":{"name":"Richland Gardens","address":"Richland Gardens, 80 Wang Kwong Road Bay, Hong Kong"},"coordinates":[8088,3603]},{"type":"Point","properties":{"name":"Richwood Park","address":"Richwood Park Shop, Arcade 33, Lo Fai Road, Tai Po, Hong Kong"},"coordinates":[7749,7552]},{"type":"Point","properties":{"name":"Riviera Garden","address":"Riviera Garden, 123 Yi Hong Street, Tsuen Wan, Hong Kong"},"coordinates":[5266,4580]},{"type":"Point","properties":{"name":"Rosedale Gardens","address":"Rosedale Gardens, 133 Castle Peak Road, Tuen Mun, Hong Kong"},"coordinates":[1209,5626]},{"type":"Point","properties":{"name":"Saddle Ridge Garden","address":"Saddle Ridge Garden, Ma On Shan, Hong Kong"},"coordinates":[9032,6427]},{"type":"Point","properties":{"name":"Sai Kung Superstore","address":"16 Chan Man Street, Sai Kung, Hong Kong"},"coordinates":[9987,5173]},{"type":"Point","properties":{"name":"Sai Wan Ho","address":"4-7 Tai Cheong Street, Shaukeiwan, Hong Kong"},"coordinates":[8478,2265]},{"type":"Point","properties":{"name":"Sai Ying Poon","address":"63-65 First Street, Sai Ying Pun, Hong Kong"},"coordinates":[6135,2347]},{"type":"Point","properties":{"name":"San Fung","address":"130-132 San Fung Avenue, Sheung Shui, Hong Kong"},"coordinates":[5670,8745]},{"type":"Point","properties":{"name":"San Hong Street","address":"67 San Hong Street, Hang Lok Square, Sheung Shui, Hong Kong"},"coordinates":[5737,8773]},{"type":"Point","properties":{"name":"Sau Mau Ping Plaza Superstore","address":"Sau Mau Ping Estate, Kwun Tong, Hong Kong"},"coordinates":[8840,3272]},{"type":"Point","properties":{"name":"Sceneway Plaza","address":"Sceneway Garden, No 8 Sceneway Road, Lam Tin, Hong Kong"},"coordinates":[8876,2932]},{"type":"Point","properties":{"name":"Scenic Villas","address":"18-20 Scenic Villas, Victoria Road, Hong Kong"},"coordinates":[5158,5589]},{"type":"Point","properties":{"name":"Seymour Terrace","address":"1 Seymour Terrace, Hong Kong"},"coordinates":[6379,2183]},{"type":"Point","properties":{"name":"Shamshuipo","address":"G/F 520-530 Fuk Wing Street, Shamshuipo, Hong Kong"},"coordinates":[6472,3900]},{"type":"Point","properties":{"name":"Sham Tseng","address":"Chan Kee Commercial Centre, 48 Castle Peak Road, Sham Tseng, Hong Kong"},"coordinates":[3681,4747]},{"type":"Point","properties":{"name":"Shanghai Street","address":"438-444 Shanghai Street, Mongkok, Hong Kong"},"coordinates":[6934,3196]},{"type":"Point","properties":{"name":"Shan King","address":"Commercial Centre, Shan King Estate, Hong Kong"},"coordinates":[7629,2266]},{"type":"Point","properties":{"name":"Sha Tau Kok","address":"Sha Tau Kok Chuen, Sha Tau Kok, Hong Kong"},"coordinates":[8520,9999]},{"type":"Point","properties":{"name":"Shatin Park","address":"Shatin, Hong Kong"},"coordinates":[7779,5019]},{"type":"Point","properties":{"name":"Shatin Plaza","address":"Shatin Plaza, 21-27 Shatin Centre Street, Shatin, Hong Kong"},"coordinates":[5158,5589]},{"type":"Point","properties":{"name":"Shek Lei","address":"No 2 Shek Sau House, Shek Lei Estate, Kwai Chung, Hong Kong"},"coordinates":[5984,4579]},{"type":"Point","properties":{"name":"Shek Lei 2","address":"Phase 2, Shek Lei Estate, Kwai Chung, Hong Kong"},"coordinates":[6100,4764]},{"type":"Point","properties":{"name":"Shek Mun","address":"Ground floor 1 Ping On street, Shatin, Hong Kong"},"coordinates":[5158,5589]},{"type":"Point","properties":{"name":"Shek Tong Tsui","address":"Hau Fook Bldg, 562-566 Queen's Road West, Hong Kong"},"coordinates":[5879,2333]},{"type":"Point","properties":{"name":"Shek Wai Kok","address":"Carpark Block, Shek Wai Kok Estate, Tsuen Wan, Hong Kong"},"coordinates":[5297,4848]},{"type":"Point","properties":{"name":"Shek Yam","address":"118 Lei Muk Road, Shek Yam, Kwai Chung, Hong Kong"},"coordinates":[6018,4838]},{"type":"Point","properties":{"name":"Sheung Shui Superstore","address":"Sheung Shui Town Centre, Sheung Shui Town Lot 56, Hong Kong"},"coordinates":[5819,8680]},{"type":"Point","properties":{"name":"Sheung Wan","address":"2 – 12 Queen’s Road West, Hong Kong"},"coordinates":[6312,2337]},{"type":"Point","properties":{"name":"Shun Lee","address":"Commercial Centre, Shun Lee Estate, Hong Kong"},"coordinates":[5158,5589]},{"type":"Point","properties":{"name":"Shun Ning Road","address":"Lai Po Garden, Shun Ning Road, Hong Kong"},"coordinates":[6523,3933]},{"type":"Point","properties":{"name":"Shun Tin","address":"208-211 Tin Kei House, Shun Tin Estate, Kwun Tong, Hong Kong"},"coordinates":[8608,3520]},{"type":"Point","properties":{"name":"Silvermine Bay","address":"2 Ngan Wan Road, Gallop Court, Hong Kong"},"coordinates":[1944,1680]},{"type":"Point","properties":{"name":"Sim City","address":"No 47-51 San Tung Street, Chung Kiu Commercial Building, Mong Kok, Hong Kong"},"coordinates":[5726,8740]},{"type":"Point","properties":{"name":"Siu Hei Court","address":"Siu Hei Shopping Centre, Siu Hei Court, 201 Wu Chui Road, Tuen Mun, Hong Kong"},"coordinates":[911,4940]},{"type":"Point","properties":{"name":"Siu Sai Wan","address":"Siu Sai Wan Plaza, Siu Sai Wan, Chai Wan, Hong Kong"},"coordinates":[9309,1645]},{"type":"Point","properties":{"name":"Stanley","address":"88 Stanley Village Road, Hong Kong"},"coordinates":[8253,334]},{"type":"Point","properties":{"name":"Sun Hing Garden","address":"Sun Hing Shopping Mall, Tai Po, Hong Kong"},"coordinates":[6827,6942]},{"type":"Point","properties":{"name":"Sun Hui","address":"Kam Boa Building, TMTL 124, Tuen Mun, Hong Kong"},"coordinates":[1076,5423]},{"type":"Point","properties":{"name":"Sun Kwai Hing","address":"Sun Kwai Hing Shopping Mall, 166-174 Hing Fong Road, Kwai Chung, Hong Kong"},"coordinates":[5812,4598]},{"type":"Point","properties":{"name":"Sun Lai","address":"Sun Lai Garden, No 2 King Tung Street, Ngau Chi Wan, Hong Kong"},"coordinates":[8141,3942]},{"type":"Point","properties":{"name":"Sunshine City 1","address":"Sunshine City Plaza, STTL 307, Ma On Shan, Hong Kong"},"coordinates":[9196,5785]},{"type":"Point","properties":{"name":"Sunshine City Superstore","address":"Sunshine City Plaza, 10 On Luk Street, Ma On Shan, Hong Kong"},"coordinates":[8808,6411]},{"type":"Point","properties":{"name":"Sun Sing","address":"245-247 Shaukeiwan Road, Shaukeiwan, Hong Kong"},"coordinates":[8627,2145]},{"type":"Point","properties":{"name":"Tai Hang Tung","address":"Tung Lung House, Tai Hang Tung Estate, Hong Kong"},"coordinates":[6994,3685]},{"type":"Point","properties":{"name":"Tai Hing","address":"45-53 Shopping Centre, Phase II, Tai Hing Estate, Tuen Mun, Hong Kong"},"coordinates":[1076,5423]},{"type":"Point","properties":{"name":"Tai Hing Garden 1","address":"Shopping Centre, Tai Hing Garden Phase 2, Tuen Mun, Hong Kong"},"coordinates":[1076,5423]},{"type":"Point","properties":{"name":"Tai Kok Tsui","address":"52 Tong Mei Road, Hong Kong"},"coordinates":[3741,8033]},{"type":"Point","properties":{"name":"Tai Po Plaza","address":"Tai Po Plaza, 1 On Tai Road, Tai Po, Hong Kong"},"coordinates":[6975,7279]},{"type":"Point","properties":{"name":"Tai Shan","address":"Tin Shan Mansion, Tai Koo Shing, Hong Kong"},"coordinates":[8433,2321]},{"type":"Point","properties":{"name":"Tai Tung","address":"117 Tai Kok Tsui Road, Tai Tung Sun Chuen, Hong Kong"},"coordinates":[7026,3754]},{"type":"Point","properties":{"name":"Tai Wai","address":"Chik Fu Mansion, 33 Chik Fu Street, Tai Wai, Hong Kong"},"coordinates":[7208,4952]},{"type":"Point","properties":{"name":"Tai Wo Hau","address":"Tai Wo Hau Estate, Tsuen Wan, Hong Kong"},"coordinates":[5624,4745]},{"type":"Point","properties":{"name":"Tai Yuen","address":"Tai Yuen Commercial Centre, Tai Yuen Estate, Tai Po, Hong Kong"},"coordinates":[2728,6967]},{"type":"Point","properties":{"name":"Tak Bo Garden","address":"Tak Bo Garden, 3 Ngau Tau Kok Road, Hong Kong"},"coordinates":[8278,3540]},{"type":"Point","properties":{"name":"Tam Kung","address":"Tam Kung Mansion, 53 Tam Kung Road, Hong Kong"},"coordinates":[7501,3400]},{"type":"Point","properties":{"name":"The Capitol","address":"the Captiol of Lohas Park, No 1 Lohas Park Road, Tseung Kwan O, Hong Kong"},"coordinates":[9999,2628]},{"type":"Point","properties":{"name":"The Panorama","address":"520 Castle Peak Road, Tsuen Wan, Hong Kong"},"coordinates":[4964,4910]},{"type":"Point","properties":{"name":"Tin Chak Superstore","address":"Tin Shui Wai, Hong Kong"},"coordinates":[2021,7483]},{"type":"Point","properties":{"name":"Tin Ching","address":"Tin Ching Shopping Centre, Tin Ching Estate, Hong Kong"},"coordinates":[6856,2060]},{"type":"Point","properties":{"name":"Tin Hau","address":"Magnolia Mansion, 4 Tin Hau Temple Road, Hong Kong"},"coordinates":[7623,2214]},{"type":"Point","properties":{"name":"Tin Tze","address":"Tin Tze Estate, Tin Shui Wai, Hong Kong"},"coordinates":[2134,7283]},{"type":"Point","properties":{"name":"Tokwawan","address":"341- 343 Tokwawan Road, Hong Kong"},"coordinates":[7603,3283]},{"type":"Point","properties":{"name":"Treasure Court","address":"Lot No 4212 & 4213, In DD124, Hung Shui Kiu, Hong Kong"},"coordinates":[1843,6522]},{"type":"Point","properties":{"name":"Trend Plaza","address":"North Wing, Trend Plaza TMTL 282, Tuen Mun, Hong Kong"},"coordinates":[1076,5423]},{"type":"Point","properties":{"name":"Tsing Yi","address":"Ghop No 4, Tsing Yi Estate, Tsing Yi, Hong Kong"},"coordinates":[5092,4469]},{"type":"Point","properties":{"name":"Tsuen Wan","address":"Lo Tak Court, Tsuen Wan, Hong Kong"},"coordinates":[5324,4902]},{"type":"Point","properties":{"name":"Tsuen Wan Centre","address":"Tsuen Wan Centre Shopping Arcade II, 87-105 Tsuen King Circuit, Tsuen Wan, Hong Kong"},"coordinates":[5092,5051]},{"type":"Point","properties":{"name":"Tsuen Wan Garden","address":"Plot A, Tsuen Wan Garden, 15-23 Castle Peak Road, Tuen Wan, Hong Kong"},"coordinates":[5158,5589]},{"type":"Point","properties":{"name":"Tsui Lai","address":"Tsui Lai Gardens, San Fung Rod, Sheung Shui, Hong Kong"},"coordinates":[5653,8974]},{"type":"Point","properties":{"name":"Tsui Ping","address":"Tsui Ping Shopping Centre, Tsui Ping Estate, Kwun Tong, Hong Kong"},"coordinates":[8244,3403]},{"type":"Point","properties":{"name":"Tsui Wan","address":"Tsui Wan Building, 155 - 163 Un Chau Street, Sham Shui Po, Hong Kong"},"coordinates":[6679,3754]},{"type":"Point","properties":{"name":"Tze Wan Shan 1","address":"NKIL 5762, Tze Wan Shan, Hong Kong"},"coordinates":[5158,5589]},{"type":"Point","properties":{"name":"Tze Wan Shan Shopping Centre","address":"Tsz Wan Shan Shopping Centre, 23 Yuk Wah Street, Tsz Wan Shan, Hong Kong"},"coordinates":[7873,4166]},{"type":"Point","properties":{"name":"Upper Kwai Chung","address":"Po Kai Mansion, 20 Wo Yee Hop Road, Upper Kwai Chung, Hong Kong"},"coordinates":[5919,4569]},{"type":"Point","properties":{"name":"Venice Garden","address":"Venice Garden, Sheung Shui Town Lot 54, Hong Kong"},"coordinates":[5692,8571]},{"type":"Point","properties":{"name":"Victoria Road","address":"Centenary Mansion, 1 Victoria Road, Kennedy Town, Hong Kong"},"coordinates":[5651,2205]},{"type":"Point","properties":{"name":"Wah Fu 1","address":"140 Wah Fu Estate, Hong Kong"},"coordinates":[5915,1318]},{"type":"Point","properties":{"name":"Wah Fu 2","address":"Wah Fu (1) Shopping Centre, Wah Fu (1) Estate, Pokfulam, Hong Kong"},"coordinates":[5742,1798]},{"type":"Point","properties":{"name":"Wah King","address":"Commercial Complex, Wah Fu Estate, Hong Kong"},"coordinates":[6811,3168]},{"type":"Point","properties":{"name":"Wah Ming","address":"Wah Ming Estate, Fanling, Hong Kong"},"coordinates":[6072,8188]},{"type":"Point","properties":{"name":"Waldorf Centre","address":"Waldorf Centre, Sai Lau Kok Road, Tsuen Wan, Hong Kong"},"coordinates":[5461,4858]},{"type":"Point","properties":{"name":"Wanchai","address":"No 194-204 Johnston Road, Hong Kong"},"coordinates":[7142,2070]},{"type":"Point","properties":{"name":"Wan Tau Tong 2","address":"Wan Tau Tong Estate, Tai Po, Hong Kong"},"coordinates":[6872,6942]},{"type":"Point","properties":{"name":"Wan Tsui Superstore","address":"Wan Tsui Estate, Chai Wan, Hong Kong"},"coordinates":[9023,1646]},{"type":"Point","properties":{"name":"Watford Road","address":"2-4 Watford Road, The Peak, Hong Kong"},"coordinates":[6707,1730]},{"type":"Point","properties":{"name":"Wearbest","address":"Wearbest Building, 66 Tokwawan Road, Tokwawan, Hong Kong"},"coordinates":[7557,3285]},{"type":"Point","properties":{"name":"Westwood Superstore","address":"8 Belcher's Street, Hong Kong"},"coordinates":[5864,2307]},{"type":"Point","properties":{"name":"Winner","address":"Winner Centre, 333 Chai Wan Road, Hong Kong"},"coordinates":[8999,1671]},{"type":"Point","properties":{"name":"Wo Che","address":"2/F Wo Che Plaza, Wo Che Estate, Shatin, Hong Kong"},"coordinates":[7684,5293]},{"type":"Point","properties":{"name":"Wo Yi Hop Road","address":"Wo Yi Hop Road, Kwai Chung, Hong Kong"},"coordinates":[5959,4897]},{"type":"Point","properties":{"name":"Yan Ching Street","address":"Forward Maqnsion, 26A Yan Ching Street, Tuen Mun, Hong Kong"},"coordinates":[1177,5571]},{"type":"Point","properties":{"name":"Yan On Building","address":"Yan On Bldg, 1 Kwong Wa Street, Mongkok, Hong Kong"},"coordinates":[7039,3213]},{"type":"Point","properties":{"name":"Yat Tung Superstore","address":"Yat Tung Estate, Tung Chung, Hong Kong"},"coordinates":[0,2170]},{"type":"Point","properties":{"name":"Yaumatei","address":"Buckingham Building, 319 Nathan Road, Hong Kong"},"coordinates":[7000,2931]},{"type":"Point","properties":{"name":"Yau Yat Chuen","address":"Yau Yat Chuen, Hong Kong"},"coordinates":[7092,3666]},{"type":"Point","properties":{"name":"Yiu Tung Estate","address":"Yiu Tung Shopping Centre, Yiu Tung Estate, Shaukeiwan, Hong Kong"},"coordinates":[8579,2078]},{"type":"Point","properties":{"name":"Yue Tin Court","address":"Commercial Centre, Yue Tin Court, Shatin, Hong Kong"},"coordinates":[5158,5589]}]}},"arcs":[],"transform":{"scale":[0.000033559255925591485,0.00003389929992999303],"translate":[113.936389,22.2069769]}}